Id,source,latitude,longitude,region,country,admin1,localityName,localityQuality,observationDate,reportingDate,status,disease,serotypes,speciesDescription,sumAtRisk,sumCases,sumDeaths,sumDestroyed,sumSlaughtered,humansGenderDesc,humansAge,humansAffected,humansDeaths
230399,OIE,-27.9,30.8,Africa,South Africa,KwaZulu-Natal,HPAI_H5N8_2017_019,Exact,17/08/2017,22/08/2017,Confirmed,Influenza - Avian,H5N8 HPAI,"domestic, unspecified bird",248000,12,12,50000,0,,0,,
230381,OIE,54.837037,73.354155,Europe,Russian Federation,Omskaya Oblast,Novaya Stanica,Exact,16/08/2017,18/08/2017,Confirmed,African swine fever,,"domestic, swine",122,6,1,0,0,,,,
230333,OIE,-21.07774,30.21162,Africa,Zimbabwe,Masvingo,Mwambe,Exact,16/08/2017,16/08/2017,Confirmed,Foot and mouth disease,,"domestic, cattle",1283,112,0,,7,,,,
230396,OIE,-26.0,28.3,Africa,South Africa,Gauteng,HPAI_H5N8_2017_020,Exact,15/08/2017,22/08/2017,Confirmed,Influenza - Avian,H5N8 HPAI,"wild, unspecified bird",,1,1,0,0,,0,,
230371,OIE,49.2379,17.7002,Europe,Czech Republic,Jihomoravsky,Hvozdná,Exact,15/08/2017,17/08/2017,Confirmed,African swine fever,,"wild, wild boar",,1,1,,,,,,
230370,OIE,49.2373,17.7008,Europe,Czech Republic,Jihomoravsky,Ostrata,Exact,15/08/2017,17/08/2017,Confirmed,African swine fever,,"wild, wild boar",,1,1,,,,,,
230395,OIE,-26.0,28.3,Africa,South Africa,Gauteng,HPAI_H5N8_2017_021,Exact,14/08/2017,22/08/2017,Confirmed,Influenza - Avian,H5N8 HPAI,"domestic, goose",34,19,19,0,0,,0,,
230367,OIE,47.771608,33.993286,Europe,Ukraine,Dnipropetrovs'ka,Slovyanka,Exact,14/08/2017,17/08/2017,Confirmed,African swine fever,,"domestic, swine",2,2,2,0,0,,,,
230379,OIE,56.538381,16.119304,Europe,Sweden,Kalmar Laen,Kalmar,Exact,13/08/2017,18/08/2017,Confirmed,Newcastle disease,APMV-I,"domestic, chicken",4000,1600,0,4000,0,,,,
230394,OIE,-24.6,27.2,Africa,South Africa,Limpopo,HPAI_H5N8_2017_022,Exact,12/08/2017,22/08/2017,Confirmed,Influenza - Avian,H5N8 HPAI,"domestic, unspecified bird",62,5,5,0,0,,,,
230380,OIE,55.456034,72.762834,Europe,Russian Federation,Omskaya Oblast,Tavrichanka,Exact,12/08/2017,18/08/2017,Confirmed,African swine fever,,"domestic, swine",8,1,1,7,0,,,,
230378,OIE,52.08446,23.080818,Europe,Poland,Lubeiskie,Terebela,Exact,12/08/2017,17/08/2017,Confirmed,African swine fever,,"domestic, swine",25,4,1,24,0,,,,
230377,OIE,53.644444,22.605556,Europe,Poland,Podlaskie,Pienczykowek,Exact,12/08/2017,17/08/2017,Confirmed,African swine fever,,"domestic, swine",19,5,5,14,0,,,,
230397,OIE,-26.8,29.8,Africa,South Africa,Mpumalanga,HPAI_H5N8_2017_018,Exact,11/08/2017,22/08/2017,Confirmed,Influenza - Avian,H5N8 HPAI,"domestic, unspecified bird",266,81,81,135,0,,,,
230369,OIE,49.2373,17.6999,Europe,Czech Republic,Jihomoravsky,Hvozdná,Exact,11/08/2017,17/08/2017,Confirmed,African swine fever,,"wild, wild boar",,1,1,,,,,,
230368,OIE,32.143211,34.842794,Asia,Israel,Tel Aviv,Hakfar Hayarok,Exact,10/08/2017,17/08/2017,Confirmed,Influenza - Equine,H3N8,"domestic, equidae",50,4,0,0,0,,,,
230334,OIE,46.78,6.64,Europe,Switzerland,Vaud,Lac de Neuch tel,Exact,10/08/2017,17/08/2017,Confirmed,Influenza - Avian,H5N8 HPAI,"wild,mute swan (cygnus olor))",,2,2,,,,,,
230332,OIE,-21.25566,31.5248,Africa,Zimbabwe,Masvingo,Chipfugwana,Exact,10/08/2017,16/08/2017,Confirmed,Foot and mouth disease,,"domestic, cattle",1047,127,,,,,,,
230305,OIE,49.849592,26.435108,Europe,Ukraine,Khmel'nyts'ka,Korovye,Exact,10/08/2017,14/08/2017,Confirmed,African swine fever,,"domestic, swine",6614,64,64,1005,0,,,,
230376,OIE,51.928458,22.712944,Europe,Poland,Lubeiskie,Grabowiec,Exact,09/08/2017,17/08/2017,Confirmed,African swine fever,,"domestic, swine",36,5,2,34,0,,,,
230375,OIE,51.655215,23.268335,Europe,Poland,Lubeiskie,Mosty,Exact,09/08/2017,17/08/2017,Confirmed,African swine fever,,"domestic, swine",1,1,0,1,0,,,,
230374,OIE,51.821846,23.55278,Europe,Poland,Lubeiskie,Krzywowolka,Exact,09/08/2017,17/08/2017,Confirmed,African swine fever,,"domestic, swine",28,4,2,26,0,,,,
230308,OIE,56.71753,24.32933,Europe,Latvia,Rigas,Baldones caounty,Exact,09/08/2017,15/08/2017,Confirmed,African swine fever,,"wild, wild boar",,1,1,0,0,,,,
230306,OIE,48.361742,22.666549,Europe,Ukraine,Zakarpats'ka,Nyzhniy Koropets,Exact,09/08/2017,14/08/2017,Confirmed,African swine fever,,"domestic, swine",11,11,11,0,0,,,,
230289,OIE,-34.2,20.7,Africa,South Africa,Western Cape,HPAI_H5N8_2017_015,Exact,09/08/2017,11/08/2017,Confirmed,Influenza - Avian,H5N8 HPAI,"domestic, turkey",1071,22,0,0,0,,,,
230288,OIE,-34.3,20.8,Africa,South Africa,Western Cape,HPAI_H5N8_2017_014,Exact,09/08/2017,11/08/2017,Confirmed,Influenza - Avian,H5N8 HPAI,"domestic, turkey",1176,33,0,0,0,,,,
230383,OIE,53.70315,50.775044,Europe,Russian Federation,Samarskaya Oblast,Chernovka,Exact,08/08/2017,18/08/2017,Confirmed,Lumpy skin disease,,"domestic, cattle",132,11,0,0,0,,,,
230382,OIE,52.992708,49.562929,Europe,Russian Federation,Samarskaya Oblast,Kupino,Exact,08/08/2017,18/08/2017,Confirmed,Lumpy skin disease,,"domestic, cattle",1505,1,0,0,0,,,,
230373,OIE,51.961748,23.10187,Europe,Poland,Lubeiskie,Michalowka,Exact,08/08/2017,17/08/2017,Confirmed,African swine fever,,"domestic, swine",21,12,4,17,0,,,,
230307,OIE,56.405372,25.750728,Europe,Latvia,Jekabpils,Salas county,Exact,08/08/2017,15/08/2017,Confirmed,African swine fever,,"wild, wild boar",,1,0,1,0,,,,
230287,OIE,45.386298,10.558177,Europe,Italy,Lombardia,Solferino,Exact,08/08/2017,10/08/2017,Confirmed,Influenza - Avian,H5N8 HPAI,"domestic, goose",7680,7680,,,,,,,
230304,OIE,56.208536,38.748856,Europe,Russian Federation,Vladimirskaya Oblast,Dubrovka,Exact,07/08/2017,11/08/2017,Confirmed,African swine fever,,"domestic, swine",37,1,1,36,0,,,,
230290,OIE,-25.8,29.6,Africa,South Africa,Mpumalanga,HPAI_H5N8_2017_016,Exact,07/08/2017,11/08/2017,Confirmed,Influenza - Avian,H5N8 HPAI,"domestic, unspecified bird",326764,975,975,325789,0,,,,
230372,OIE,51.660725,23.436161,Europe,Poland,Lubeiskie,Lack,Exact,06/08/2017,17/08/2017,Confirmed,African swine fever,,"domestic, swine",141,5,0,141,0,,,,
230275,OIE,55.020877,74.029901,Europe,Russian Federation,Omskaya Oblast,Borki,Exact,05/08/2017,11/08/2017,Confirmed,African swine fever,,"domestic, swine",1,1,1,,,,,,
230303,OIE,51.904159,46.499719,Europe,Russian Federation,Saratovskaya Oblast,Andreevka,Exact,04/08/2017,11/08/2017,Confirmed,African swine fever,,"domestic, swine",2,1,1,1,0,,,,
230302,OIE,58.020533,31.476617,Europe,Russian Federation,Novgorodskaya Oblast,Podborov’e,Exact,04/08/2017,11/08/2017,Confirmed,African swine fever,,"domestic, swine",29,1,1,28,0,,,,
230284,OIE,45.348406,10.531326,Europe,Italy,Lombardia,Medole,Exact,04/08/2017,07/08/2017,Confirmed,Influenza - Avian,H5N8 HPAI,"domestic, turkey",18000,18000,,,,,,,
230283,OIE,45.346753,10.530068,Europe,Italy,Lombardia,Medole,Exact,04/08/2017,07/08/2017,Confirmed,Influenza - Avian,H5N8 HPAI,"domestic, turkey",31700,31700,,,,,,,
230282,OIE,45.333108,10.522951,Europe,Italy,Lombardia,Medole,Exact,04/08/2017,07/08/2017,Confirmed,Influenza - Avian,H5N8 HPAI,"domestic, turkey",45000,45000,,,,,,,
230281,OIE,-26.3,28.2,Africa,South Africa,Gauteng,HPAI_H5N8_2017_013,Exact,04/08/2017,07/08/2017,Confirmed,Influenza - Avian,H5N8 HPAI,"domestic, unspecified bird",30000,1774,1774,,,,,,
230280,OIE,-26.0,27.8,Africa,South Africa,Gauteng,HPAI_H5N8_2017_012,Exact,04/08/2017,07/08/2017,Confirmed,Influenza - Avian,H5N8 HPAI,"domestic, unspecified bird",77000,236,236,4800,0,,,,
230331,OIE,-21.16361,30.1836,Africa,Zimbabwe,Masvingo,Chengwe,Exact,03/08/2017,16/08/2017,Confirmed,Foot and mouth disease,,"domestic, cattle",2265,37,0,,6,,,,
230330,OIE,-21.15156,31.46206,Africa,Zimbabwe,Masvingo,Vhelemu,Exact,03/08/2017,16/08/2017,Confirmed,Foot and mouth disease,,"domestic, cattle",1500,16,,,,,,,
230301,OIE,51.86573,46.369445,Europe,Russian Federation,Saratovskaya Oblast,Kommuna-3,Exact,03/08/2017,11/08/2017,Confirmed,African swine fever,,"domestic, swine",,1,,,,,,,
230300,OIE,51.917743,46.578438,Europe,Russian Federation,Saratovskaya Oblast,Studenovka,Exact,03/08/2017,11/08/2017,Confirmed,African swine fever,,"domestic, swine",9,1,1,8,0,,,,
230299,OIE,55.862487,42.697239,Europe,Russian Federation,Nizhegorodskaya Oblast,Zhekino,Exact,03/08/2017,11/08/2017,Confirmed,African swine fever,,"wild, wild boar",,1,1,,,,,,
230286,OIE,45.137998,9.506145,Europe,Italy,Lombardia,Chignolo Po,Exact,03/08/2017,10/08/2017,Confirmed,Influenza - Avian,H5N8 HPAI,"domestic, goose",3064,2100,2100,,,,,,
230285,OIE,55.578287,38.919265,Europe,Russian Federation,Moskovskaya Oblast,Kurovskoe,Exact,03/08/2017,08/08/2017,Confirmed,Influenza - Avian,H5N8 HPAI,"domestic, unspecified bird",64,21,21,43,0,,,,
230298,OIE,47.180163,40.888223,Europe,Russian Federation,Rostovskaya Oblast,Leninsky,Exact,02/08/2017,11/08/2017,Confirmed,African swine fever,,"domestic, swine",20,1,1,19,0,,,,
230297,OIE,51.804067,46.227996,Europe,Russian Federation,Saratovskaya Oblast,Bokovka,Exact,01/08/2017,11/08/2017,Confirmed,African swine fever,,"domestic, swine",47,1,1,46,0,,,,
230292,OIE,43.37,122.15,Asia,China,Nei Mongol Zizhiqu,Khorchin,Exact,01/08/2017,04/08/2017,Confirmed,Influenza - Avian,H5N1 HPAI,"domestic, unspecified bird",81500,35000,15000,66500,,,,,
230273,OIE,44.88879,10.453311,Europe,Italy,Emilia-romagna,Sorbolo,Exact,01/08/2017,03/08/2017,Confirmed,Influenza - Avian,H5N8 HPAI,"domestic, turkey",24738,4900,1800,,,,,,
230272,OIE,45.248502,10.996098,Europe,Italy,Veneto,Erbè,Exact,01/08/2017,03/08/2017,Confirmed,Influenza - Avian,H5N8 HPAI,"domestic, turkey",5642,1241,1241,4401,0,,,,
230271,OIE,45.045236,8.665277,Europe,Italy,Lombardia,Frascarolo,Exact,01/08/2017,03/08/2017,Confirmed,Influenza - Avian,H5N8 HPAI,"wild, mallard",,10,10,,,,,,
230184,OIE,-26.8,29.3,Africa,South Africa,Mpumalanga,HPAI_H5N8_2017_011,Exact,01/08/2017,03/08/2017,Confirmed,Influenza - Avian,H5N8 HPAI,"domestic, unspecified bird",398723,301,301,0,0,,,,
230242,OIE,49.2372,17.6977,Europe,Czech Republic,Jihomoravsky,Lužkovice,Exact,30/07/2017,01/08/2017,Confirmed,African swine fever,,"wild, wild boar",1,1,,,,,,,
230241,OIE,49.2381,17.6964,Europe,Czech Republic,Jihomoravsky,Lužkovice,Exact,30/07/2017,01/08/2017,Confirmed,African swine fever,,"wild, wild boar",1,1,,,1,,,,
230240,OIE,49.2373,17.6981,Europe,Czech Republic,Jihomoravsky,Lužkovice,Exact,30/07/2017,01/08/2017,Confirmed,African swine fever,,"wild, wild boar",1,1,,,,,,,
230239,OIE,49.2373,17.6963,Europe,Czech Republic,Jihomoravsky,Lužkovice,Exact,30/07/2017,01/08/2017,Confirmed,African swine fever,,"wild, wild boar",1,1,,,,,,,
230238,OIE,49.2378,17.699,Europe,Czech Republic,Jihomoravsky,Hvozdná,Exact,30/07/2017,01/08/2017,Confirmed,African swine fever,,"wild, wild boar",1,1,,,,,,,
230254,OIE,51.664522,46.838921,Europe,Russian Federation,Saratovskaya Oblast,Berezovka,Exact,28/07/2017,01/08/2017,Confirmed,African swine fever,,"domestic, swine",12,2,1,1,0,,,,
230233,OIE,49.028592,27.550671,Europe,Ukraine,Vinnyts'ka,Myhalivtsi,Exact,28/07/2017,01/08/2017,Confirmed,African swine fever,,"domestic, swine",11,1,1,10,0,,,,
230226,OIE,55.149643,73.19133,Europe,Russian Federation,Omskaya Oblast,Kharino,Exact,28/07/2017,01/08/2017,Confirmed,African swine fever,,"domestic, swine",2,1,1,,,,,,
230225,OIE,54.693,74.8753,Europe,Russian Federation,Omskaya Oblast,Kamyshino,Exact,28/07/2017,01/08/2017,Confirmed,African swine fever,,"domestic, swine",37,4,4,2,,,,,
230173,National authorities,43.6225,122.255833,Asia,China,Nei Mongol Zizhiqu,"Horqin district, Tongliao city",Centroid Locality,28/07/2017,01/08/2017,Confirmed,Influenza - Avian,H5N1 HPAI,"domestic, chicken",,35000,15000,66500,,,,,
230270,OIE,51.51594,23.46433,Europe,Poland,Lubeiskie,Dobropol,Exact,27/07/2017,02/08/2017,Confirmed,African swine fever,,"wild, wild boar",1,1,,,,,,,
230253,OIE,45.405284,37.969378,Europe,Russian Federation,Krasnodarskiy Kray,Petrovsky,Exact,27/07/2017,01/08/2017,Confirmed,African swine fever,,"domestic, swine",4502,2,2,,,,,,
230237,OIE,49.2382,17.6995,Europe,Czech Republic,Jihomoravsky,Hvozdná,Exact,27/07/2017,01/08/2017,Confirmed,African swine fever,,"wild, wild boar",1,1,,,,,,,
230232,OIE,51.655528,23.274472,Europe,Poland,Lubeiskie,Mosty,Exact,27/07/2017,31/07/2017,Confirmed,African swine fever,,"domestic, swine",65,21,4,61,0,,,,
230224,OIE,55.453711,73.267174,Europe,Russian Federation,Omskaya Oblast,Nizhneirtyshskoe,Exact,27/07/2017,01/08/2017,Confirmed,African swine fever,,"domestic, swine",3,3,,,,,,,
230223,OIE,55.5229,73.403555,Europe,Russian Federation,Omskaya Oblast,Kalachevka,Exact,27/07/2017,01/08/2017,Confirmed,African swine fever,,"domestic, swine",2,2,,,,,,,
230204,OIE,37.6133,22.75,Europe,Greece,Peloponnisos,ARGOLIDA 7,Exact,27/07/2017,31/07/2017,Confirmed,West Nile Fever,,"domestic, equidae",2,2,0,0,0,,,,
230203,OIE,37.6408,22.8067,Europe,Greece,Peloponnisos,ARGOLIDA 6,Exact,27/07/2017,31/07/2017,Confirmed,West Nile Fever,,"domestic, equidae",1,1,0,0,0,,,,
230202,OIE,37.6367,22.7617,Europe,Greece,Peloponnisos,ARGOLIDA 5,Exact,27/07/2017,31/07/2017,Confirmed,West Nile Fever,,"domestic, equidae",2,1,0,0,0,,,,
230201,OIE,37.5961,22.8369,Europe,Greece,Peloponnisos,ARGOLIDA 4,Exact,27/07/2017,31/07/2017,Confirmed,West Nile Fever,,"domestic, equidae",3,1,0,0,0,,,,
230200,OIE,37.6164,22.8017,Europe,Greece,Peloponnisos,ARGOLIDA 3,Exact,27/07/2017,31/07/2017,Confirmed,West Nile Fever,,"domestic, equidae",2,1,0,0,0,,,,
230199,OIE,37.6881,22.7086,Europe,Greece,Peloponnisos,ARGOLIDA 2,Exact,27/07/2017,31/07/2017,Confirmed,West Nile Fever,,"domestic, equidae",2,1,0,0,0,,,,
230198,OIE,37.6408,22.8806,Europe,Greece,Peloponnisos,ARGOLIDA 1,Exact,27/07/2017,31/07/2017,Confirmed,West Nile Fever,,"domestic, equidae",1,1,0,0,0,,,,
230197,OIE,-17.81,24.06,Africa,Namibia,Caprivi,Musele Island-KasikaCrushpen,Exact,27/07/2017,01/08/2017,Confirmed,Foot and mouth disease,,"domestic, cattle",500,15,0,0,0,,,,
230186,OIE,45.161023,10.63778,Europe,Italy,Lombardia,Castellucchio,Exact,27/07/2017,31/07/2017,Confirmed,Influenza - Avian,H5N8 HPAI,"domestic, unspecified bird",123463,123463,2537,0,0,,,,
230170,OIE,47.75667,22.83966,Europe,Romania,Satu Mare,Satu-Mare,Exact,27/07/2017,01/08/2017,Confirmed,African swine fever,,"domestic, swine",3,,1,2,0,,0,,
230169,OIE,47.75667,22.83966,Europe,Romania,Satu Mare,Satu-Mare,Exact,27/07/2017,31/07/2017,Confirmed,African swine fever,,"domestic, swine",4,1,1,3,0,,,,
230157,OIE,26.333333,43.966667,Asia,Saudi Arabia,Quassim,Buraidah ,Exact,,27/07/2017,Confirmed,MERS-CoV ,,,,,,,,Male,36,1,
230329,OIE,-21.12213,30.17686,Africa,Zimbabwe,Masvingo,Chirindi,Exact,26/07/2017,16/08/2017,Confirmed,Foot and mouth disease,,"domestic, cattle",1583,251,0,,11,,,,
230328,OIE,-20.32524,32.32621,Africa,Zimbabwe,Manicaland,Stage 3A,Exact,26/07/2017,16/08/2017,Confirmed,Foot and mouth disease,,"domestic, cattle",445,27,,,,,,,
230279,OIE,52.742187,1.594402,Europe,U.K. of Great Britain and Northern Ireland,England,North Norfolk,Exact,26/07/2017,07/08/2017,Confirmed,Influenza - Avian,H5N8 HPAI,"wild,mute swan (cygnus olor))",,1,1,,,,,,
230269,OIE,51.468308,23.440839,Europe,Poland,Lubeiskie,Zdzarka,Exact,26/07/2017,02/08/2017,Confirmed,African swine fever,,"wild, wild boar",1,1,,,,,,,
230268,OIE,51.480292,23.628536,Europe,Poland,Lubeiskie,Sobibor,Exact,26/07/2017,02/08/2017,Confirmed,African swine fever,,"wild, wild boar",1,1,,,,,,,
230252,OIE,52.135324,45.844728,Europe,Russian Federation,Saratovskaya Oblast,Lokh,Exact,26/07/2017,01/08/2017,Confirmed,African swine fever,,"domestic, swine",7,3,1,,,,,,
230231,OIE,51.631592,23.493614,Europe,Poland,Lubeiskie,Stawki,Exact,26/07/2017,31/07/2017,Confirmed,African swine fever,,"domestic, swine",36,9,1,35,0,,,,
230230,OIE,53.498167,22.771306,Europe,Poland,Podlaskie,Dawidowizna,Exact,26/07/2017,31/07/2017,Confirmed,African swine fever,,"domestic, swine",7,7,5,2,0,,,,
230191,OIE,45.22139,11.043313,Europe,Italy,Veneto,Nogara,Exact,26/07/2017,28/07/2017,Confirmed,Influenza - Avian,H5N8 HPAI,"domestic, turkey",12200,2800,120,12080,,,,,
229632,National authorities,23.402081,45.23404,Asia,Saudi Arabia,Riyad,Riyad,Centroid Admin1,,26/07/2017,Confirmed,MERS-CoV ,,,,,,,,Male,57,1,
230327,OIE,-20.26742,32.3876,Africa,Zimbabwe,Manicaland,Taguta,Exact,25/07/2017,16/08/2017,Confirmed,Foot and mouth disease,,"domestic, cattle",439,116,0,,,,,,
230326,OIE,-21.22458,30.27133,Africa,Zimbabwe,Masvingo,Dinhe,Exact,25/07/2017,16/08/2017,Confirmed,Foot and mouth disease,,"domestic, cattle",2285,67,0,,15,,,,
230251,OIE,49.288897,43.994674,Europe,Russian Federation,Volgogradskaya Oblast,Ilovlya,Exact,25/07/2017,01/08/2017,Confirmed,African swine fever,,"domestic, swine",12,3,3,9,0,,,,
230236,OIE,49.2364,17.7013,Europe,Czech Republic,Jihomoravsky,Klecuvka,Exact,25/07/2017,01/08/2017,Confirmed,African swine fever,,"wild, wild boar",1,1,,,,,,,
230235,OIE,49.2359,17.7004,Europe,Czech Republic,Jihomoravsky,Klecuvka,Exact,25/07/2017,01/08/2017,Confirmed,African swine fever,,"wild, wild boar",1,1,,,,,,,
230234,OIE,49.2368,17.6999,Europe,Czech Republic,Jihomoravsky,Klecuvka,Exact,25/07/2017,01/08/2017,Confirmed,African swine fever,,"wild, wild boar",1,1,,,,,,,
230229,OIE,52.033207,23.656527,Europe,Poland,Lubeiskie,Murawiec,Exact,25/07/2017,31/07/2017,Confirmed,African swine fever,,"domestic, swine",17,8,2,15,0,,,,
230228,OIE,51.887278,22.663608,Europe,Poland,Lubeiskie,Kakolewnica,Exact,25/07/2017,31/07/2017,Confirmed,African swine fever,,"domestic, swine",25,12,0,25,0,,,,
230274,OIE,15.037942,120.765382,Asia,Philippines,Region III (Central Luzon),San Luis,Exact,24/07/2017,11/08/2017,Confirmed,Influenza - Avian,H5 HPAI,"domestic, unspecified bird",190000,36485,36485,,,,,,
230227,OIE,51.480292,23.628536,Europe,Poland,Lubeiskie,Sobibor,Exact,24/07/2017,31/07/2017,Confirmed,African swine fever,,"domestic, swine",1905,46,20,1885,0,,,,
230222,OIE,55.385176,73.23717,Europe,Russian Federation,Omskaya Oblast,Nizhnyaya Il’inka,Exact,24/07/2017,01/08/2017,Confirmed,African swine fever,,"domestic, swine",2,2,0,,,,,,
230221,OIE,55.371399,72.905198,Europe,Russian Federation,Omskaya Oblast,Uvalo-Yadrino,Exact,24/07/2017,01/08/2017,Confirmed,African swine fever,,"domestic, swine",2,2,0,,,,,,
230188,OIE,-26.9,28.9,Africa,South Africa,Mpumalanga,HPAI_H5N8_2017_010,Exact,24/07/2017,31/07/2017,Confirmed,Influenza - Avian,H5N8 HPAI,"domestic, unspecified bird",600,87,87,413,0,,,,
229639,OIE,51.651064,23.448408,Europe,Poland,Lubeiskie,Lack,Exact,24/07/2017,26/07/2017,Confirmed,African swine fever,,"wild, wild boar",,1,1,,,,0,,
229616,OIE,49.236,17.7008,Europe,Czech Republic,Jihomoravsky,Lužkovice,Exact,24/07/2017,25/07/2017,Confirmed,African swine fever,,"wild, wild boar",,1,1,,,,0,,
229603,OIE,23.85076,120.306669,Asia,Taiwan (Province of China),Taiwan Sheng,Dacheng Township,Exact,,24/07/2017,Confirmed,Influenza - Avian,H5N2 HPAI,"domestic, chicken",18722,1680,1680,17042,,,,,
230265,OIE,51.0997,55.3434,Europe,Russian Federation,Orenburgskaya Oblast,Chashkan,Exact,23/07/2017,01/08/2017,Confirmed,Lumpy skin disease,,"domestic, cattle",134,1,,,,,,,
230250,OIE,48.5977,44.558,Europe,Russian Federation,Volgogradskaya Oblast,Sarpinsky,Exact,23/07/2017,01/08/2017,Confirmed,African swine fever,,"domestic, swine",4,1,1,3,0,,,,
230249,OIE,48.666,44.053,Europe,Russian Federation,Volgogradskaya Oblast,Novy Rogachik,Exact,23/07/2017,01/08/2017,Confirmed,African swine fever,,"domestic, swine",13,1,1,12,0,,,,
230220,OIE,55.323177,73.094624,Europe,Russian Federation,Omskaya Oblast,Krasnoyarka,Exact,23/07/2017,01/08/2017,Confirmed,African swine fever,,"domestic, swine",3,3,,,,,,,
230219,OIE,54.58268,73.96836,Europe,Russian Federation,Omskaya Oblast,Solonovka,Exact,23/07/2017,01/08/2017,Confirmed,African swine fever,,"domestic, swine",4,1,1,,,,,,
230190,OIE,45.296691,11.316301,Europe,Italy,Veneto,Albaredo d'Adige,Exact,23/07/2017,28/07/2017,Confirmed,Influenza - Avian,H5N8 HPAI,"domestic, turkey",17724,3120,1000,16724,,,,,
230171,FAO Field Officer,16.8,96.15,Asia,Myanmar,Yangon,Yangon,Exact,23/07/2017,31/07/2017,Confirmed,Influenza - Avian,H5N1 HPAI,"domestic, chicken",25,6,6,19,0,,,,
229615,OIE,49.2346,17.7022,Europe,Czech Republic,Jihomoravsky,Lužkovice,Exact,23/07/2017,25/07/2017,Confirmed,African swine fever,,"wild, wild boar",,1,1,,,,0,,
229614,OIE,49.2355,17.7013,Europe,Czech Republic,Jihomoravsky,Lužkovice,Exact,23/07/2017,25/07/2017,Confirmed,African swine fever,,"wild, wild boar",,1,1,,,,0,,
230325,OIE,-21.58841,30.38758,Africa,Zimbabwe,Masvingo,Bubye,Exact,22/07/2017,16/08/2017,Confirmed,Foot and mouth disease,,"domestic, cattle",1949,150,0,,10,,,,
230324,OIE,-22.329546,31.201613,Africa,Zimbabwe,Masvingo,Pesvi,Exact,21/07/2017,16/08/2017,Confirmed,Foot and mouth disease,,"domestic, cattle",830,15,,,,,,,
230323,OIE,-22.27023,31.22882,Africa,Zimbabwe,Masvingo,Davata,Exact,21/07/2017,16/08/2017,Confirmed,Foot and mouth disease,,"domestic, cattle",1341,176,,,,,,,
230293,OIE,-26.3,28.9,Africa,South Africa,Mpumalanga,HPAI_H5N8_2017_017,Exact,21/07/2017,15/08/2017,Confirmed,Influenza - Avian,H5N8 HPAI,"wild, house sparrow, wild, unspecified bird",,5,1,,,,,,
230267,OIE,51.922897,23.457609,Europe,Poland,Lubeiskie,Choroszczynka,Exact,21/07/2017,02/08/2017,Confirmed,African swine fever,,"wild, wild boar",1,1,,,,,,,
230264,OIE,51.6714,55.726,Europe,Russian Federation,Orenburgskaya Oblast,Beregovoy,Exact,21/07/2017,01/08/2017,Confirmed,Lumpy skin disease,,"domestic, cattle",160,1,,,,,,,
230261,OIE,53.81666,9.733333,Europe,Germany,Schleswig-Holstein,Groß-Offenseth-Aspern,Centroid Locality,21/07/2017,01/08/2017,Confirmed,Equine infectious anaemia,,"domestic, equidae",49,1,0,1,0,,,,
230187,OIE,-26.8,28.9,Africa,South Africa,Mpumalanga,HPAI_H5N8_2017_009,Exact,21/07/2017,31/07/2017,Confirmed,Influenza - Avian,H5N8 HPAI,"domestic, unspecified bird",135,50,50,85,0,,,,
230166,OIE,48.690055,23.186025,Europe,Ukraine,Zakarpats'ka,Hunting ground ""Rusnyk"",Exact,21/07/2017,25/07/2017,Confirmed,African swine fever,,"wild, wild boar",,1,1,,,,0,,
229645,OIE,52.326546,22.962956,Europe,Poland,Mazowieckie,Stare Mierzwice,Exact,21/07/2017,26/07/2017,Confirmed,African swine fever,,"wild, wild boar",,1,1,,,,0,,
229644,OIE,52.130037,23.030199,Europe,Poland,Lubeiskie,Lesna Podlaska ,Exact,21/07/2017,26/07/2017,Confirmed,African swine fever,,"wild, wild boar",,1,1,,,,0,,
229643,OIE,52.039714,23.259819,Europe,Poland,Lubeiskie,Woskrzenice Duze,Exact,21/07/2017,26/07/2017,Confirmed,African swine fever,,"wild, wild boar",,1,1,,,,0,,
229642,OIE,51.642301,23.515431,Europe,Poland,Lubeiskie,Stawki,Exact,21/07/2017,26/07/2017,Confirmed,African swine fever,,"wild, wild boar",,1,1,,,,0,,
229613,OIE,49.2368,17.7008,Europe,Czech Republic,Jihomoravsky,Hvozdná,Exact,21/07/2017,25/07/2017,Confirmed,African swine fever,,"wild, wild boar",,1,1,,,,0,,
229605,OIE,48.690055,23.186025,Europe,Ukraine,Zakarpats'ka," Hunting ground ""Rusnyk""",Exact,21/07/2017,25/07/2017,Confirmed,African swine fever,,"wild, wild boar",,1,1,,,,0,,
230195,OIE,5.54823,-74.46779,Americas,Colombia,Cundinamarca,Olla Caliente,Exact,20/07/2017,04/08/2017,Confirmed,Foot and mouth disease,O,"domestic, cattle",195,5,0,195,0,,,,
230189,OIE,45.363724,10.52547,Europe,Italy,Lombardia,Castiglione delle Stiviere,Exact,20/07/2017,28/07/2017,Confirmed,Influenza - Avian,H5N8 HPAI,"domestic, chicken",460000,460000,5000,,,,,,
230165,OIE,48.340439,23.88209,Europe,Ukraine,Zakarpats'ka,Hunting ground ""Yanovets"",Exact,20/07/2017,25/07/2017,Confirmed,African swine fever,,"wild, wild boar",,1,1,,,,,,
229612,OIE,49.2377,17.7013,Europe,Czech Republic,Jihomoravsky,Hvozdná,Exact,20/07/2017,25/07/2017,Confirmed,African swine fever,,"wild, wild boar",,1,1,,,,0,,
229611,OIE,49.2377,17.7004,Europe,Czech Republic,Jihomoravsky,Hvozdná,Exact,20/07/2017,25/07/2017,Confirmed,African swine fever,,"wild, wild boar",,1,1,,,,0,,
229610,OIE,49.2346,17.7022,Europe,Czech Republic,Jihomoravsky,Klecuvka ,Exact,20/07/2017,25/07/2017,Confirmed,African swine fever,,"wild, wild boar",,1,1,,,,0,,
229609,OIE,49.2355,17.7008,Europe,Czech Republic,Jihomoravsky,Lužkovice ,Exact,20/07/2017,25/07/2017,Confirmed,African swine fever,,"wild, wild boar",,1,1,,,,0,,
229608,OIE,49.2355,17.7017,Europe,Czech Republic,Jihomoravsky,Lužkovice ,Exact,20/07/2017,25/07/2017,Confirmed,African swine fever,,"wild, wild boar",,1,1,,,,0,,
229607,OIE,49.2364,17.6999,Europe,Czech Republic,Jihomoravsky,Príluky ,Exact,20/07/2017,25/07/2017,Confirmed,African swine fever,,"wild, wild boar",,1,1,,,,0,,
229606,OIE,49.2364,17.6995,Europe,Czech Republic,Jihomoravsky,Príluky ,Exact,20/07/2017,25/07/2017,Confirmed,African swine fever,,"wild, wild boar",,1,1,,,,,,
229604,OIE,48.340439,23.88209,Europe,Ukraine,Zakarpats'ka,Hunting ground""Yanovets"",Exact,20/07/2017,25/07/2017,Confirmed,African swine fever,,"wild, wild boar",,1,1,,,,,,
229482,OIE,-26.7,27.7,Africa,South Africa,Gauteng,HPAI_H5N8_2017_008,Exact,20/07/2017,24/07/2017,Confirmed,Influenza - Avian,H5N8 HPAI,"domestic, goose",25,11,9,0,0,,,,
230248,OIE,50.176,45.132,Europe,Russian Federation,Volgogradskaya Oblast,Avilovsky,Exact,19/07/2017,01/08/2017,Confirmed,African swine fever,,"domestic, swine",61,5,5,56,0,,,,
230247,OIE,55.7569,38.822,Europe,Russian Federation,Moskovskaya Oblast,Gubino,Exact,19/07/2017,01/08/2017,Confirmed,African swine fever,,"domestic, swine",9,1,1,,,,,,
230168,OIE,42.225201,21.468777,Europe,The former Yugoslav Republic of Macedonia,Skopje,Brest,Exact,19/07/2017,27/07/2017,Confirmed,Equine infectious anaemia,,"domestic, horse",9,2,0,2,0,,,,
229640,OIE,51.957504,23.065422,Europe,Poland,Lubeiskie,Mlyniec ,Exact,19/07/2017,26/07/2017,Confirmed,African swine fever,,"wild, wild boar",,1,1,,,,0,,
229415,OIE,55.3517,73.029,Europe,Russian Federation,Omskaya Oblast,Novoarkhangelka ,Exact,19/07/2017,24/07/2017,Confirmed,African swine fever,,"domestic, swine",14,3,3,11,,,0,,
229408,OIE,51.93252,22.778002,Europe,Poland,Lubeiskie,Bereza,Exact,19/07/2017,24/07/2017,Confirmed,African swine fever,,"domestic, swine",2,1,1,1,,,0,,
229407,OIE,52.351309,22.774862,Europe,Poland,Mazowieckie,Mezenin-Kolonia ,Exact,19/07/2017,24/07/2017,Confirmed,African swine fever,,"domestic, swine",17,1,1,16,,,0,,
229406,OIE,51.887256,22.664003,Europe,Poland,Lubeiskie,Kakolewnica ,Exact,19/07/2017,24/07/2017,Confirmed,African swine fever,,"domestic, swine",27,8,1,26,,,0,,
229400,OIE,45.294189,10.520736,Europe,Italy,Lombardia,Castel Goffredo,Exact,19/07/2017,21/07/2017,Confirmed,Influenza - Avian,H5N8 HPAI,"domestic, unspecified bird",3,3,3,0,0,,0,,
229399,OIE,45.096065,10.959743,Europe,Italy,Lombardia,Roncoferraro,Exact,19/07/2017,21/07/2017,Confirmed,Influenza - Avian,H5N8 HPAI,"domestic, turkey",20560,18871,1689,,,,,,
229385,OIE,49.699574,32.689397,Europe,Ukraine,Poltavs'ka,Chutivka,Unknown,19/07/2017,21/07/2017,Confirmed,African swine fever,,"domestic, swine",12,1,1,11,0,,,,
229384,OIE,49.261684,30.090398,Europe,Ukraine,Cherkas'ka," Zhaskiv ",Exact,19/07/2017,21/07/2017,Confirmed,African swine fever,,"domestic, swine",,1,1,,,,,,
230263,OIE,51.39945,56.71282,Europe,Russian Federation,Orenburgskaya Oblast,Verkhneozernoe,Exact,18/07/2017,01/08/2017,Confirmed,Lumpy skin disease,,"domestic, cattle",198,1,,,,,,,
230246,OIE,58.1657,28.19017,Europe,Russian Federation,Pskovskaya Oblast,Seredka,Exact,18/07/2017,01/08/2017,Confirmed,African swine fever,,"domestic, swine",214,27,19,10,0,,,,
230192,OIE,8.141183,-72.3814,Americas,Colombia,Norte De Santander,La Fortaleza,Exact,18/07/2017,28/07/2017,Confirmed,Foot and mouth disease,O,"domestic, cattle",81,1,0,81,0,,,,
229641,OIE,51.652633,23.466614,Europe,Poland,Lubeiskie,Lack,Exact,18/07/2017,26/07/2017,Confirmed,African swine fever,,"wild, wild boar",,1,1,,,,0,,
229638,OIE,51.993251,23.201506,Europe,Poland,Lubeiskie,Dokudow Drugi ,Exact,18/07/2017,26/07/2017,Confirmed,African swine fever,,"wild, wild boar",,2,2,,,,0,,
229637,OIE,51.927611,23.419401,Europe,Poland,Lubeiskie,Poloski,Exact,18/07/2017,26/07/2017,Confirmed,African swine fever,,"wild, wild boar",,1,1,,,,0,,
229412,OIE,56.1635,38.546,Europe,Russian Federation,Vladimirskaya Oblast,Krutets,Exact,18/07/2017,24/07/2017,Confirmed,African swine fever,,"domestic, swine",2,1,1,,,,0,,
229405,OIE,52.084867,23.069644,Europe,Poland,Lubeiskie,Terebela ,Exact,18/07/2017,24/07/2017,Confirmed,African swine fever,,"domestic, swine",30,2,1,29,,,0,,
229404,OIE,51.912806,22.73975,Europe,Poland,Lubeiskie,Kakolewnica ,Exact,18/07/2017,24/07/2017,Confirmed,African swine fever,,"domestic, swine",16,5,3,13,,,,,
230262,OIE,51.273,46.875,Europe,Russian Federation,Saratovskaya Oblast,Nalivnaya,Exact,17/07/2017,01/08/2017,Confirmed,Lumpy skin disease,,"domestic, cattle",3,1,,,,,,,
230245,OIE,56.12,41.08,Europe,Russian Federation,Vladimirskaya Oblast,Sudogodskoe,Exact,17/07/2017,01/08/2017,Confirmed,African swine fever,,"wild, wild boar",,1,,,,,,,
229636,OIE,51.974001,23.058249,Europe,Poland,Lubeiskie,Mlyniec,Exact,17/07/2017,26/07/2017,Confirmed,African swine fever,,"wild, wild boar",,1,1,,,,0,,
229411,OIE,48.47297,44.795145,Europe,Russian Federation,Volgogradskaya Oblast,Svetly Yar,Exact,17/07/2017,24/07/2017,Confirmed,African swine fever,,"domestic, swine",2,2,1,,,,0,,
229344,OIE,51.920972,22.749528,Europe,Poland,Lubeiskie,Wygnanka ,Exact,17/07/2017,19/07/2017,Confirmed,African swine fever,,"domestic, swine",32,10,4,28,,,0,,
229337,OIE,49.2391,17.6922,Europe,Czech Republic,Jihomoravsky,Luzkovice,Exact,17/07/2017,18/07/2017,Confirmed,African swine fever,,"wild, wild boar",,1,1,,,,,,
229336,OIE,49.2382,17.694,Europe,Czech Republic,Jihomoravsky,Klecuvka,Exact,17/07/2017,18/07/2017,Confirmed,African swine fever,,"wild, wild boar",,1,1,,,,,,
229335,OIE,49.2387,17.6936,Europe,Czech Republic,Jihomoravsky,Klecuvka,Exact,17/07/2017,18/07/2017,Confirmed,African swine fever,,"wild, wild boar",,1,1,,,,,,
229334,OIE,49.2387,17.6936,Europe,Czech Republic,Jihomoravsky,Klecuvka,Exact,17/07/2017,18/07/2017,Confirmed,African swine fever,,"wild, wild boar",,1,1,,,,,,
229333,OIE,49.2382,17.6922,Europe,Czech Republic,Jihomoravsky,Klecuvka,Exact,17/07/2017,18/07/2017,Confirmed,African swine fever,,"wild, wild boar",,1,1,,,,,,
229332,OIE,49.2386,17.6922,Europe,Czech Republic,Jihomoravsky,Klecuvka,Exact,17/07/2017,18/07/2017,Confirmed,African swine fever,,"wild, wild boar",,1,1,,,,,,
229331,OIE,49.2387,17.6927,Europe,Czech Republic,Jihomoravsky,Luzkovice,Exact,17/07/2017,18/07/2017,Confirmed,African swine fever,,"wild, wild boar",,1,1,,,,,,
229330,OIE,49.2387,17.6927,Europe,Czech Republic,Jihomoravsky,Luzkovice,Exact,17/07/2017,18/07/2017,Confirmed,African swine fever,,"wild, wild boar",,1,1,,,,,,
229329,OIE,49.2387,17.694,Europe,Czech Republic,Jihomoravsky,Luzkovice,Exact,17/07/2017,18/07/2017,Confirmed,African swine fever,,"wild, wild boar",,1,1,,,,,,
229328,OIE,49.2391,17.694,Europe,Czech Republic,Jihomoravsky,Luzkovice,Exact,17/07/2017,18/07/2017,Confirmed,African swine fever,,"wild, wild boar",,1,1,,,,,,
229327,OIE,49.24,17.6936,Europe,Czech Republic,Jihomoravsky,Hvodzna,Exact,17/07/2017,18/07/2017,Confirmed,African swine fever,,"wild, wild boar",,1,1,,,,,,
230244,OIE,51.68989,46.7251,Europe,Russian Federation,Saratovskaya Oblast,Privolzhskoe,Exact,16/07/2017,01/08/2017,Confirmed,African swine fever,,"domestic, swine",58,3,1,,,,,,
230146,OIE,14.077525,98.196364,Asia,Myanmar,Taninthayi,We kyun htein thit,Exact,16/07/2017,25/07/2017,Confirmed,Influenza - Avian,H5N1 HPAI,"domestic, chicken",25555,5440,5440,20115,0,,0,,
229478,OIE,51.25119,48.79639,Europe,Russian Federation,Saratovskaya Oblast,Petropavlovka,Exact,16/07/2017,24/07/2017,Confirmed,Lumpy skin disease,,"domestic, cattle",3,1,0,0,0,,,,
229466,OIE,-18.8,14.4,Africa,Namibia,Omusati,otjetjekua,Exact,16/07/2017,22/07/2017,Confirmed,Lumpy skin disease,,"domestic, cattle",,8,0,0,0,,,,
229410,OIE,48.643,44.703,Europe,Russian Federation,Volgogradskaya Oblast,Zakutsky,Exact,16/07/2017,24/07/2017,Confirmed,African swine fever,,"domestic, swine",139,2,2,,,,0,,
230243,OIE,51.80607,46.99063,Europe,Russian Federation,Saratovskaya Oblast,Sosnovka,Exact,15/07/2017,01/08/2017,Confirmed,African swine fever,,"domestic, swine",3,1,,,,,,,
229635,OIE,53.557306,22.534944,Europe,Poland,Podlaskie,Podlasek,Exact,15/07/2017,26/07/2017,Confirmed,African swine fever,,"wild, wild boar",,1,1,,,,0,,
229370,OIE,1.133392,110.616631,Asia,Malaysia,Sarawak,Rasau,Exact,15/07/2017,18/07/2017,Confirmed,Rabies,,"domestic, cat, domestic, dog",268,3,0,3,0,,0,,
229369,OIE,4.83809,100.63008,Asia,Malaysia,Perak," Kampung Kuala Sepetang ",Exact,15/07/2017,18/07/2017,Confirmed,Rabies,,"domestic, cat, domestic, dog",210,1,0,1,0,,0,,
229326,OIE,49.2396,17.6909,Europe,Czech Republic,Jihomoravsky,Luzkovice,Exact,15/07/2017,18/07/2017,Confirmed,African swine fever,,"wild, wild boar",,1,1,,,,,,
229325,OIE,49.2396,17.694,Europe,Czech Republic,Jihomoravsky,Luzkovice,Exact,15/07/2017,18/07/2017,Confirmed,African swine fever,,"wild, wild boar",,1,1,,,,,,
229324,OIE,49.2386,17.695,Europe,Czech Republic,Jihomoravsky,Luzkovice,Exact,15/07/2017,18/07/2017,Confirmed,African swine fever,,"wild, wild boar",,1,1,,,,,,
229323,OIE,49.2391,17.6936,Europe,Czech Republic,Jihomoravsky,Luzkovice,Exact,15/07/2017,18/07/2017,Confirmed,African swine fever,,"wild, wild boar",,1,1,,,,,,
229322,OIE,49.2382,17.6945,Europe,Czech Republic,Jihomoravsky,Luzkovice,Exact,15/07/2017,18/07/2017,Confirmed,African swine fever,,"wild, wild boar",,1,1,,,,,,
229321,OIE,49.2396,17.6922,Europe,Czech Republic,Jihomoravsky,Luzkovice,Exact,15/07/2017,18/07/2017,Confirmed,African swine fever,,"wild, wild boar",,1,1,,,,,,
229320,OIE,49.2391,17.6927,Europe,Czech Republic,Jihomoravsky,Luzkovice,Exact,15/07/2017,18/07/2017,Confirmed,African swine fever,,"wild, wild boar",,1,1,,,,,,
229319,OIE,49.2387,17.694,Europe,Czech Republic,Jihomoravsky,Luzkovice,Exact,15/07/2017,18/07/2017,Confirmed,African swine fever,,"wild, wild boar",,1,1,,,,,,
229280,OIE,51.057016,32.322494,Europe,Ukraine,Chernihivs'ka,Ombyst,Exact,15/07/2017,18/07/2017,Confirmed,African swine fever,,"domestic, swine",1,1,1,,,,,,
229634,OIE,52.00375,23.064878,Europe,Poland,Lubeiskie,Helenow,Exact,14/07/2017,26/07/2017,Confirmed,African swine fever,,"wild, wild boar",,1,1,,,,0,,
229477,OIE,50.7759,48.20327,Europe,Russian Federation,Saratovskaya Oblast,Talovka,Exact,14/07/2017,24/07/2017,Confirmed,Lumpy skin disease,,"domestic, cattle",16,1,0,0,0,,,,
229476,OIE,50.66697,48.57067,Europe,Russian Federation,Saratovskaya Oblast,Dyursky,Exact,14/07/2017,24/07/2017,Confirmed,Lumpy skin disease,,"domestic, cattle",9,1,0,0,0,,,,
229475,OIE,50.47634,47.62022,Europe,Russian Federation,Saratovskaya Oblast,Malyj Uzen,Exact,14/07/2017,24/07/2017,Confirmed,Lumpy skin disease,,"domestic, cattle",4,1,0,0,0,,,,
229414,OIE,54.65829,73.87757,Europe,Russian Federation,Omskaya Oblast,Achair ,Exact,14/07/2017,24/07/2017,Confirmed,African swine fever,,"domestic, swine",42,1,1,41,,,0,,
229398,OIE,51.998402,23.329635,Europe,Poland,Lubeiskie,Chotylow ,Exact,14/07/2017,24/07/2017,Confirmed,African swine fever,,"wild, wild boar",,1,1,,,,0,,
229397,OIE,52.3525,22.934444,Europe,Poland,Mazowieckie,Nowe Mierzwice ,Exact,14/07/2017,24/07/2017,Confirmed,African swine fever,,"wild, wild boar",,3,3,,,,0,,
229368,OIE,0.983224,110.600059,Asia,Malaysia,Sarawak,Mentong Silaga,Exact,14/07/2017,18/07/2017,Confirmed,Rabies,,"domestic, cat, domestic, dog",15,1,0,1,0,,0,,
229367,OIE,1.035097,110.685522,Asia,Malaysia,Sarawak,Engkabang,Exact,14/07/2017,18/07/2017,Confirmed,Rabies,,"domestic, cat, domestic, dog",156,2,0,2,0,,0,,
229366,OIE,1.005979,110.599145,Asia,Malaysia,Sarawak,Mentong Berawan,Exact,14/07/2017,18/07/2017,Confirmed,Rabies,,"domestic, cat, domestic, dog",63,2,0,3,0,,0,,
229365,OIE,1.16639,110.599974,Asia,Malaysia,Sarawak,Ampungan,Exact,14/07/2017,18/07/2017,Confirmed,Rabies,,"domestic, cat, domestic, dog",220,10,0,16,0,,0,,
229364,OIE,1.024994,110.658418,Asia,Malaysia,Sarawak,Sumpas,Exact,14/07/2017,18/07/2017,Confirmed,Rabies,,"domestic, cat, domestic, dog",106,1,0,2,0,,0,,
229357,OIE,8.057845,-72.479478,Americas,Colombia,Norte De Santander,"El Rosal, Lasno Seco",Centroid Admin2,14/07/2017,19/07/2017,Confirmed,Foot and mouth disease,O,"domestic, cattle",36,2,0,0,,,0,,
229342,OIE,49.7995,35.7711,Europe,Ukraine,Kharkivs'ka,Fedorivka ,Exact,14/07/2017,18/07/2017,Confirmed,African swine fever,,"domestic, swine",8,1,1,,,,0,,
229277,National authorities,23.602371,104.870416,Asia,China,Yunnan Sheng,Wenshan Zhuang and Miao,Centroid Admin2,,14/07/2017,Confirmed,Influenza - Avian,H7N9 LPAI,,,,,,,Male,54,1,
230185,OIE,22.807541,120.307975,Asia,Taiwan (Province of China),Taiwan Sheng,Gangshan District,Exact,13/07/2017,31/07/2017,Confirmed,Influenza - Avian,H5N2 HPAI,"domestic, chicken",1096,153,153,943,0,,,,
229481,OIE,-25.8,28.1,Africa,South Africa,Gauteng,HPAI_H5N8_2017_007,Exact,13/07/2017,24/07/2017,Confirmed,Influenza - Avian,H5N8 HPAI,"wild,egyptian goose (alopochen aegyptiacus))",,1,0,,,,,,
229396,OIE,52.019884,23.363792,Europe,Poland,Lubeiskie,Chotylow,Exact,13/07/2017,24/07/2017,Confirmed,African swine fever,,"wild, wild boar",,2,2,,,,0,,
229395,OIE,52.013481,23.364455,Europe,Poland,Lubeiskie,Chotylow,Exact,13/07/2017,24/07/2017,Confirmed,African swine fever,,"wild, wild boar",,1,1,,,,0,,
229394,OIE,52.016625,23.34463,Europe,Poland,Lubeiskie,Kloda Duza,Exact,13/07/2017,24/07/2017,Confirmed,African swine fever,,"wild, wild boar",,1,1,,,,0,,
229393,OIE,52.032557,23.497743,Europe,Poland,Lubeiskie,Wolka Dobrynska ,Exact,13/07/2017,24/07/2017,Confirmed,African swine fever,,"wild, wild boar",,1,1,,,,0,,
229392,OIE,51.629439,23.515289,Europe,Poland,Lubeiskie,Stawki-Kolonia,Exact,13/07/2017,24/07/2017,Confirmed,African swine fever,,"wild, wild boar",,1,1,,,,0,,
229391,OIE,51.477403,23.510994,Europe,Poland,Lubeiskie,Lesnictwo Adamki ,Exact,13/07/2017,24/07/2017,Confirmed,African swine fever,,"wild, wild boar",,1,1,,,,0,,
229351,OIE,23.72469,120.253493,Asia,Taiwan (Province of China),Taiwan Sheng,Dongshi Township,Exact,13/07/2017,17/07/2017,Confirmed,Influenza - Avian,H5N2 HPAI,"domestic, chicken",12000,788,788,11212,,,0,,
229318,OIE,49.2396,17.6931,Europe,Czech Republic,Jihomoravsky,Hvodzna,Exact,13/07/2017,18/07/2017,Confirmed,African swine fever,,"wild, wild boar",,1,1,,,,,,
229317,OIE,49.2381,17.6941,Europe,Czech Republic,Jihomoravsky,Luzkovice,Exact,13/07/2017,18/07/2017,Confirmed,African swine fever,,"wild, wild boar",,1,1,,,,,,
229312,OIE,56.0525,42.2393,Europe,Russian Federation,Vladimirskaya Oblast,Phedorkovo ,Exact,13/07/2017,14/07/2017,Confirmed,African swine fever,,"domestic, swine",40,5,5,,,,,,
229311,OIE,55.94185,41.08125,Europe,Russian Federation,Vladimirskaya Oblast,Likino,Exact,13/07/2017,14/07/2017,Confirmed,African swine fever,,"domestic, swine",87,1,1,,,,,,
229310,OIE,55.813137,37.07843,Europe,Russian Federation,Moskovskaya Oblast,Pavlovskaya Sloboda ,Exact,13/07/2017,14/07/2017,Confirmed,African swine fever,,"domestic, swine",16,1,1,,,,,,
229279,OIE,40.130578,-5.322448,Europe,Spain,Castilla y León,"AVILA, CANDELEDA",Exact,13/07/2017,18/07/2017,Confirmed,Equine infectious anaemia,,"domestic, horse",32,2,0,2,,,,,
229485,National authorities,32.39,118.8249,Asia,China,Jiangsu Sheng,Nanjing,Unknown,12/07/2017,21/07/2017,Confirmed,Influenza - Avian,H7N9 LPAI,,,,,,,Female,62,1,
229390,OIE,51.859309,22.833472,Europe,Poland,Lubeiskie,Wolka Lozecka ,Exact,12/07/2017,24/07/2017,Confirmed,African swine fever,,"wild, wild boar",,1,1,,,,0,,
229389,OIE,52.037595,23.385987,Europe,Poland,Lubeiskie,Zalesie-Kolonia ,Exact,12/07/2017,24/07/2017,Confirmed,African swine fever,,"wild, wild boar",,1,1,,,,0,,
229388,OIE,52.006611,23.405045,Europe,Poland,Lubeiskie,Dobrynka ,Exact,12/07/2017,24/07/2017,Confirmed,African swine fever,,"wild, wild boar",,1,1,,,,0,,
229363,OIE,1.149975,110.6458333,Asia,Malaysia,Sarawak,Remun,Exact,12/07/2017,18/07/2017,Confirmed,Rabies,,"domestic, cat, domestic, dog",305,2,0,10,0,,0,,
229338,National authorities,55.122351,24.304468,Europe,Lithuania,Kauno,"Šilų village, UAB Birch complex pig farm ",Centroid Admin2,,12/07/2017,Confirmed,African swine fever,,"domestic, swine",23464,,,,,,0,,
229273,OIE,48.525568,23.43751,Europe,Ukraine,Zakarpats'ka,Hunting ground Gorb ,Exact,12/07/2017,17/07/2017,Confirmed,African swine fever,,"wild, wild boar",,1,1,,,,,,
229272,OIE,-17.81,24.06,Africa,Namibia,Caprivi,Musele Island-Kasika Crushpen,Unknown,12/07/2017,17/07/2017,Confirmed,Foot and mouth disease,Not Specified,"domestic, cattle",400,9,0,0,0,,,,
230134,OIE,13.3469,13.6076,Africa,Nigeria,Borno,Minjibir,Exact,11/07/2017,24/07/2017,Confirmed,Rift Valley fever,,"domestic, cattle",305,,,,,,0,,
230133,OIE,13.3469,13.6076,Africa,Nigeria,Borno,Gamboron Ngala,Exact,11/07/2017,24/07/2017,Confirmed,Rift Valley fever,,"domestic, cattle",64,,,,,,0,,
230132,OIE,9.0979,12.697,Africa,Nigeria,Adamawa,Mubi,Exact,11/07/2017,24/07/2017,Confirmed,Rift Valley fever,,"domestic, cattle",11,,,,,,0,,
230131,OIE,13.5446,4.3538,Africa,Nigeria,Sokoto,Illela,Exact,11/07/2017,24/07/2017,Confirmed,Rift Valley fever,,"domestic, cattle",63,,,,,,,,
229480,OIE,-25.8,28.1,Africa,South Africa,Gauteng,HPAI_H5N8_2017_005,Exact,11/07/2017,24/07/2017,Confirmed,Influenza - Avian,H5N8 HPAI,"wild, duck",,1,1,,,,,,
229474,OIE,50.849988,55.883605,Europe,Russian Federation,Orenburgskaya Oblast,Akoba,Exact,11/07/2017,24/07/2017,Confirmed,Lumpy skin disease,,"domestic, cattle",419,2,0,0,0,,,,
229409,OIE,56.705,41.773,Europe,Russian Federation,Ivanovskaya Oblast,Gridinskoe ,Exact,11/07/2017,24/07/2017,Confirmed,African swine fever,,"wild, wild boar",,2,2,,,,,,
229387,OIE,52.102597,23.222235,Europe,Poland,Lubeiskie,Las Szadek ,Exact,11/07/2017,24/07/2017,Confirmed,African swine fever,,"wild, wild boar",,1,1,,,,0,,
229350,OIE,23.762298,120.262057,Asia,Taiwan (Province of China),Taiwan Sheng,Mailiao Township,Exact,11/07/2017,17/07/2017,Confirmed,Influenza - Avian,H5N2 HPAI,"domestic, chicken",22000,3172,3172,18828,,,0,,
229349,OIE,23.762332,120.261465,Asia,Taiwan (Province of China),Taiwan Sheng,Mailiao Township,Exact,11/07/2017,17/07/2017,Confirmed,Influenza - Avian,H5N2 HPAI,"domestic, chicken",18000,515,515,17485,,,0,,
229343,OIE,52.154141,23.454616,Europe,Poland,Lubeiskie,Bohukaly ,Exact,11/07/2017,19/07/2017,Confirmed,African swine fever,,"domestic, swine",28,1,1,27,,,,,
229316,OIE,49.2386,17.694,Europe,Czech Republic,Jihomoravsky,Kostelec,Exact,11/07/2017,18/07/2017,Confirmed,African swine fever,,"wild, wild boar",,1,1,,,,,,
229315,OIE,49.2387,17.6931,Europe,Czech Republic,Jihomoravsky,Priluky,Exact,11/07/2017,18/07/2017,Confirmed,African swine fever,,"wild, wild boar",,1,1,,,,,,
229314,OIE,49.2384,17.6925,Europe,Czech Republic,Jihomoravsky,Luzkovice,Exact,11/07/2017,18/07/2017,Confirmed,African swine fever,,"wild, wild boar",,1,1,,,,,,
229313,OIE,49.2377,17.6938,Europe,Czech Republic,Jihomoravsky,Luzkovice,Exact,11/07/2017,18/07/2017,Confirmed,African swine fever,,"wild, wild boar",,1,1,,,,,,
229309,OIE,56.197,39.6575,Europe,Russian Federation,Vladimirskaya Oblast,Gorbatovka ,Exact,11/07/2017,14/07/2017,Confirmed,African swine fever,,"domestic, swine",60,18,18,,,,,,
229308,OIE,56.07115,39.89497,Europe,Russian Federation,Vladimirskaya Oblast,Koroedovo ,Exact,11/07/2017,14/07/2017,Confirmed,African swine fever,,"domestic, swine",250,17,17,,,,,,
229278,OIE,42.224104,21.46223,Europe,The former Yugoslav Republic of Macedonia,Skopje,Brest,Exact,11/07/2017,18/07/2017,Confirmed,Equine infectious anaemia,,"domestic, horse",10,3,1,5,,,,,
228842,National authorities,24.8,49.38,Asia,Saudi Arabia,Eastern Province,Haweiyah,Unknown,,11/07/2017,Confirmed,MERS-CoV ,,,,,,,,Female,76,1,
229633,OIE,52.289861,23.068028,Europe,Poland,Podlaskie,Wajkow ,Exact,10/07/2017,26/07/2017,Confirmed,African swine fever,,"wild, wild boar",,1,1,,,,,,
229473,OIE,52.445971,53.545054,Europe,Russian Federation,Orenburgskaya Oblast,Myasnikov A.I,Centroid Admin1,10/07/2017,24/07/2017,Confirmed,Lumpy skin disease,,"domestic, cattle",108,1,0,0,0,,0,,
229339,National authorities,58.554566,22.977929,Europe,Estonia,Saare maakond,Orissaare vald,Centroid Admin2,10/07/2017,11/07/2017,Confirmed,African swine fever,,"domestic, swine",3200,,,,,,0,,
229307,OIE,48.69699,43.512075,Europe,Russian Federation,Volgogradskaya Oblast,Kalach-na-Donu ,Exact,10/07/2017,14/07/2017,Confirmed,African swine fever,,"domestic, swine",26,9,7,,,,,,
229266,OIE,53.313333,22.398333,Europe,Poland,Podlaskie,Siestrzanki,Exact,10/07/2017,13/07/2017,Confirmed,African swine fever,,"wild, wild boar",,1,1,,,,,,
228862,OIE,49.2317,17.7821,Europe,Czech Republic,Jihomoravsky,Priluky,Exact,10/07/2017,11/07/2017,Confirmed,African swine fever,,"wild, wild boar",,1,1,,,,,,
228861,OIE,49.2767,17.8159,Europe,Czech Republic,Jihomoravsky,Kostelec,Exact,10/07/2017,11/07/2017,Confirmed,African swine fever,,"wild, wild boar",,1,1,,,,,,
228860,OIE,49.3555,17.8046,Europe,Czech Republic,Jihomoravsky,Hvozdná,Exact,10/07/2017,11/07/2017,Confirmed,African swine fever,,"wild, wild boar",,1,1,,,,,,
229348,OIE,23.786959,120.250094,Asia,Taiwan (Province of China),Taiwan Sheng,Mailiao Township,Exact,09/07/2017,17/07/2017,Confirmed,Influenza - Avian,H5N2 HPAI,"domestic, chicken",21000,716,716,20284,,,0,,
229306,OIE,51.82147,46.391072,Europe,Russian Federation,Saratovskaya Oblast,Elshanka ,Exact,09/07/2017,14/07/2017,Confirmed,African swine fever,,"domestic, swine",2,1,,,,,,,
229305,OIE,48.554029,44.788091,Europe,Russian Federation,Volgogradskaya Oblast,Repino,Exact,09/07/2017,14/07/2017,Confirmed,African swine fever,,"domestic, swine",240,3,3,,,,,,
228845,OIE,-26.3,28.9,Africa,South Africa,Mpumalanga,Govan Mbeki,Exact,09/07/2017,10/07/2017,Confirmed,Influenza - Avian,H5N8 HPAI,"domestic, chicken",7000,1000,1000,,0,,0,,
229362,OIE,1.15628889,110.5408333,Asia,Malaysia,Sarawak,Tangga Pulau Tamba Cina,Exact,08/07/2017,18/07/2017,Confirmed,Rabies,,"domestic, cat, domestic, dog",80,1,0,1,0,,,,
229347,OIE,23.68405,120.32722,Asia,Taiwan (Province of China),Taiwan Sheng,Yuanchang Township,Exact,08/07/2017,17/07/2017,Confirmed,Influenza - Avian,H5N2 HPAI,"domestic, chicken",22000,2480,2480,19520,,,0,,
229304,OIE,56.310771,42.977691,Europe,Russian Federation,Nizhegorodskaya Oblast,Mulino,Exact,08/07/2017,14/07/2017,Confirmed,African swine fever,,"domestic, swine",194,20,20,,,,,,
229303,OIE,51.8622,46.6066,Europe,Russian Federation,Saratovskaya Oblast,Bukatovka ,Exact,08/07/2017,14/07/2017,Confirmed,African swine fever,,"domestic, swine",12,5,5,,,,,,
229302,OIE,51.67919,46.68918,Europe,Russian Federation,Saratovskaya Oblast,Pavlovka ,Exact,08/07/2017,14/07/2017,Confirmed,African swine fever,,"domestic, swine",64,3,3,,,,,,
229265,OIE,52.020018,23.211182,Europe,Poland,Lubeiskie,Hola,Exact,08/07/2017,13/07/2017,Confirmed,African swine fever,,"wild, wild boar",,1,1,,,,,,
228930,OIE,48.5897,44.464,Europe,Russian Federation,Volgogradskaya Oblast,Beketovsky,Exact,08/07/2017,13/07/2017,Confirmed,Lumpy skin disease,,"domestic, cattle",3,0,0,,,,,,
228929,OIE,51.6858,52.4078,Europe,Russian Federation,Orenburgskaya Oblast,Pustobaevo,Exact,08/07/2017,13/07/2017,Confirmed,Lumpy skin disease,,"domestic, cattle",86,10,0,,,,,,
230266,OIE,40.435556,-8.748611,Europe,Portugal,Coimbra,MIRA,Exact,07/07/2017,01/08/2017,Confirmed,Newcastle disease,,"domestic, pigeon",200,1,0,1,1,,,,
229416,OIE,-26.485693,31.191971,Africa,Swaziland,Manzini,McCreedy,Exact,07/07/2017,21/07/2017,Confirmed,African horse sickness,7,"domestic, horse",24,1,1,0,0,,,,
229301,OIE,48.596458,44.7013,Europe,Russian Federation,Volgogradskaya Oblast,Kletsky ,Exact,07/07/2017,14/07/2017,Confirmed,African swine fever,,"domestic, swine",36,4,4,,,,,,
229300,OIE,55.935889,39.91857,Europe,Russian Federation,Vladimirskaya Oblast,Zarechnoe ,Exact,07/07/2017,14/07/2017,Confirmed,African swine fever,,"domestic, swine",22,1,0,,,,,,
229264,OIE,52.104102,23.195386,Europe,Poland,Lubeiskie,Las Kijowiecki,Exact,07/07/2017,13/07/2017,Confirmed,African swine fever,,"wild, wild boar",,1,1,,,,,,
229263,OIE,52.104102,23.195386,Europe,Poland,Lubeiskie,Las Kijowiecki,Exact,07/07/2017,13/07/2017,Confirmed,African swine fever,,"wild, wild boar",,1,1,,,,,,
228928,OIE,50.9773,54.4654,Europe,Russian Federation,Orenburgskaya Oblast,Burannoe,Exact,07/07/2017,13/07/2017,Confirmed,Lumpy skin disease,,"domestic, cattle",1110,1,0,,,,,,
228927,OIE,51.5303,49.9928,Europe,Russian Federation,Saratovskaya Oblast,Kamyshlak,Exact,07/07/2017,13/07/2017,Confirmed,Lumpy skin disease,,"domestic, cattle",165,3,0,,,,,,
228868,OIE,40.451328,-8.734034,Europe,Portugal,Coimbra,MIRA ,Unknown,07/07/2017,12/07/2017,Confirmed,Newcastle disease,,"domestic, pigeon",71,1,0,71,,,0,0,0
228867,OIE,53.406361,22.796222,Europe,Poland,Podlaskie,Monki,Exact,07/07/2017,11/07/2017,Confirmed,African swine fever,,"domestic, swine",5,2,1,4,,,0,,
230260,OIE,51.263056,6.549167,Europe,Germany,Nordrhein-Westfalen,Willich,Centroid Locality,06/07/2017,01/08/2017,Confirmed,Equine infectious anaemia,,"domestic, equidae",54,1,0,1,0,,,,
230259,OIE,51.263056,6.549167,Europe,Germany,Nordrhein-Westfalen,Willich,Centroid Locality,06/07/2017,01/08/2017,Confirmed,Equine infectious anaemia,,"domestic, equidae",52,1,0,1,0,,,,
229274,National authorities,55.39464,73.15286,Europe,Russian Federation,Omskaya Oblast,Verbluzh’e,Exact,06/07/2017,14/07/2017,Confirmed,African swine fever,,"domestic, swine",27,11,11,,,,,,
229262,OIE,52.019807,23.60687,Europe,Poland,Lubeiskie,Lebiedziew,Exact,06/07/2017,13/07/2017,Confirmed,African swine fever,,"wild, wild boar",,3,3,,,,,,
229261,OIE,52.184777,23.162656,Europe,Poland,Lubeiskie,Witulin,Exact,06/07/2017,13/07/2017,Confirmed,African swine fever,,"wild, wild boar",,1,1,,,,,,
229252,OIE,23.710572,120.249017,Asia,Taiwan (Province of China),Taiwan Sheng," Dongshi Township ",Exact,06/07/2017,11/07/2017,Confirmed,Influenza - Avian,H5N2 HPAI,"domestic, chicken",20500,365,365,17435,,,0,,
228926,OIE,51.9661,53.4912,Europe,Russian Federation,Orenburgskaya Oblast,Lapaz,Exact,06/07/2017,13/07/2017,Confirmed,Lumpy skin disease,,"domestic, cattle",558,1,0,,,,,,
228866,OIE,52.184777,23.162656,Europe,Poland,Lubeiskie,Romanow,Exact,06/07/2017,11/07/2017,Confirmed,African swine fever,,"domestic, swine",2,2,1,1,,,0,,
228859,OIE,49.2655,17.737,Europe,Czech Republic,Jihomoravsky,Hvozdná,Exact,06/07/2017,11/07/2017,Confirmed,African swine fever,,"wild, wild boar",,1,1,,,,,,
228858,OIE,49.288,17.8272,Europe,Czech Republic,Jihomoravsky,Luzkovice,Exact,06/07/2017,11/07/2017,Confirmed,African swine fever,,"wild, wild boar",,1,1,,,,,,
228857,OIE,49.2767,17.8046,Europe,Czech Republic,Jihomoravsky,Kostelec,Exact,06/07/2017,11/07/2017,Confirmed,African swine fever,,"wild, wild boar",,1,1,,,,,,
228856,OIE,49.288,17.7934,Europe,Czech Republic,Jihomoravsky,Kostelec,Exact,06/07/2017,11/07/2017,Confirmed,African swine fever,,"wild, wild boar",,1,1,,,,,,
228855,OIE,49.288,17.8046,Europe,Czech Republic,Jihomoravsky,Kostelec,Exact,06/07/2017,11/07/2017,Confirmed,African swine fever,,"wild, wild boar",,1,1,,,,,,
228854,OIE,49.2542,17.7821,Europe,Czech Republic,Jihomoravsky,Kostelec,Exact,06/07/2017,11/07/2017,Confirmed,African swine fever,,"wild, wild boar",,1,1,,,,,,
228844,OIE,-26.3,28.2,Africa,South Africa,Gauteng,Ekurhuleni,Exact,06/07/2017,10/07/2017,Confirmed,Influenza - Avian,H5N8 HPAI,"domestic, chicken",370000,39,39,0,0,,,,
229386,OIE,52.333167,23.060722,Europe,Poland,Podlaskie," Mielnik ",Unknown,05/07/2017,24/07/2017,Confirmed,African swine fever,,"wild, wild boar",,1,1,,,,,,
229345,OIE,32.629,-87.275,Americas,United States of America,Alabama,Perry County ,Exact,05/07/2017,18/07/2017,Confirmed,Bovine spongiform encephalopathy,,"domestic, cattle",1,1,1,,,,,,
229299,OIE,51.64557,46.63457,Europe,Russian Federation,Saratovskaya Oblast,Bobrovka ,Exact,05/07/2017,14/07/2017,Confirmed,African swine fever,,"domestic, swine",8,1,,,,,,,
229247,OIE,1.0956,110.38517,Asia,Malaysia,Sarawak," Kampung Lebor ",Exact,05/07/2017,10/07/2017,Confirmed,Rabies,,"domestic, dog",461,29,0,29,,,0,,
229245,OIE,47.45,8.23,Europe,Switzerland,Aargau,Mülligen,Exact,05/07/2017,10/07/2017,Confirmed,Equine infectious anaemia,,"domestic, horse",64,1,0,1,,,,,
228925,OIE,51.6894,52.9518,Europe,Russian Federation,Orenburgskaya Oblast,Zernovoj,Exact,05/07/2017,13/07/2017,Confirmed,Lumpy skin disease,,"domestic, cattle",542,19,0,,,,,,
228924,OIE,50.9968,54.2277,Europe,Russian Federation,Orenburgskaya Oblast,Novoiletsk,Exact,05/07/2017,13/07/2017,Confirmed,Lumpy skin disease,,"domestic, cattle",1338,12,0,,,,,,
228853,OIE,49.2767,17.692,Europe,Czech Republic,Jihomoravsky,Priluky,Exact,05/07/2017,11/07/2017,Confirmed,African swine fever,,"wild, wild boar",,1,1,,,,,,
228852,OIE,49.2655,17.7934,Europe,Czech Republic,Jihomoravsky,Luzkovice,Exact,05/07/2017,11/07/2017,Confirmed,African swine fever,,"wild, wild boar",,1,1,,,,,,
228851,OIE,49.2542,17.7708,Europe,Czech Republic,Jihomoravsky,Luzkovice,Exact,05/07/2017,11/07/2017,Confirmed,African swine fever,,"wild, wild boar",,1,1,,,,,,
228850,OIE,49.2317,17.737,Europe,Czech Republic,Jihomoravsky,Luzkovice,Exact,05/07/2017,11/07/2017,Confirmed,African swine fever,,"wild, wild boar",,1,1,,,,,,
228849,OIE,49.2992,17.7483,Europe,Czech Republic,Jihomoravsky,Hvozdná,Exact,05/07/2017,11/07/2017,Confirmed,African swine fever,,"wild, wild boar",,1,1,,,,,,
228841,National authorities,50.762428,5.62094,Europe,Belgium,Region wallonne,Bassenge,Unknown,05/07/2017,05/07/2017,Confirmed,Influenza - Avian,H5N8 HPAI,"domestic, unspecified bird",19,5,5,14,,,0,,
228823,OIE,42.224127,22.398256,Europe,The former Yugoslav Republic of Macedonia,Kriva Palanka,Zhidilovo,Exact,05/07/2017,10/07/2017,Confirmed,Lumpy skin disease,,"domestic, cattle",132,1,0,1,0,,,,
230366,OIE,31.890897,34.910371,Asia,Israel,Central District,AZARYA,Exact,04/07/2017,16/08/2017,Confirmed,Sheep pox and goat pox,,"domestic, sheep",700,100,16,0,0,,,,
229413,OIE,54.6026,74.00025,Europe,Russian Federation,Omskaya Oblast,Achairsky,Exact,04/07/2017,24/07/2017,Confirmed,African swine fever,,"domestic, swine",44,6,6,38,,,,,
229360,National authorities,4.33099,-74.4462,Americas,Colombia,Cundinamarca,"Tibacuy, San Luis",Exact,04/07/2017,20/07/2017,Confirmed,Foot and mouth disease,O,"domestic, cattle",18,16,,,,,0,,
229298,OIE,51.82654,46.5845,Europe,Russian Federation,Saratovskaya Oblast,Kosheli ,Exact,04/07/2017,14/07/2017,Confirmed,African swine fever,,"domestic, swine",5,4,4,,,,,,
229297,OIE,56.53629,41.04547,Europe,Russian Federation,Ivanovskaya Oblast,Aphanasovo ,Exact,04/07/2017,14/07/2017,Confirmed,African swine fever,,"domestic, swine",1,1,1,,,,,,
229260,OIE,52.128694,23.043611,Europe,Poland,Lubeiskie,Lesna Podlaska,Exact,04/07/2017,13/07/2017,Confirmed,African swine fever,,"wild, wild boar",,1,1,,,,,,
229246,OIE,0.98033,110.64565,Asia,Malaysia,Sarawak,Kampung Paon Rimu,Exact,04/07/2017,10/07/2017,Confirmed,Rabies,,"domestic, cat",782,3,0,3,,,,,
228917,OIE,20.4809,105.9712,Asia,Viet Nam,Ha Nam,Liem Thuan,Exact,04/07/2017,11/07/2017,Confirmed,Influenza - Avian,H5N1 HPAI,"domestic, unspecified bird",1135,500,300,835,0,,,,
228773,National authorities,39.915213,113.703183,Asia,China,Shanxi Sheng,Datong,Centroid Admin2,,04/07/2017,Confirmed,Influenza - Avian,H7N9 LPAI,,,,,,,Male,72,1,
228772,National authorities,27.086604,105.024973,Asia,China,Guizhou Sheng,Bijie,Centroid Admin2,,04/07/2017,Confirmed,Influenza - Avian,H7N9 LPAI,,,,,,,Male,45,1,
228771,National authorities,23.602371,104.870416,Asia,China,Yunnan Sheng,Wenshan Zhuang and Miao,Centroid Admin2,,04/07/2017,Confirmed,Influenza - Avian,H7N9 LPAI,,,,,,,Female,33,1,
228770,National authorities,23.602371,104.870416,Asia,China,Yunnan Sheng,Wenshan Zhuang and Miao,Centroid Admin2,,04/07/2017,Confirmed,Influenza - Avian,H7N9 LPAI,,,,,,,Female,4,1,
228769,National authorities,23.602371,104.870416,Asia,China,Yunnan Sheng,Wenshan Zhuang and Miao,Centroid Admin2,,04/07/2017,Confirmed,Influenza - Avian,H7N9 LPAI,,,,,,,Female,42,1,
228768,National authorities,23.602371,104.870416,Asia,China,Yunnan Sheng,Wenshan Zhuang and Miao,Centroid Admin2,,04/07/2017,Confirmed,Influenza - Avian,H7N9 LPAI,,,,,,,Male,27,1,
228766,National authorities,27.096804,41.73943,Asia,Saudi Arabia,Hail,Hail,Centroid Admin1,,04/07/2017,Confirmed,MERS-CoV ,,,,,,,,Female,57,1,
230205,OIE,48.7567,6.9817,Europe,France,Lorraine,LANGATTE,Exact,03/07/2017,28/07/2017,Confirmed,Anthrax,,"domestic, cattle",3,1,1,,,,,,
229296,OIE,51.74505,46.69734,Europe,Russian Federation,Saratovskaya Oblast,Bereznyaki,Exact,03/07/2017,14/07/2017,Confirmed,African swine fever,,"domestic, swine",13,5,5,,,,,,
229259,OIE,52.759628,23.263775,Europe,Poland,Podlaskie,Holody,Exact,03/07/2017,13/07/2017,Confirmed,African swine fever,,"wild, wild boar",,1,1,,,,,,
229258,OIE,51.983028,23.315694,Europe,Poland,Lubeiskie,Zalutyn,Exact,03/07/2017,13/07/2017,Confirmed,African swine fever,,"wild, wild boar",,1,1,,,,,,
229257,OIE,52.026972,23.269528,Europe,Poland,Lubeiskie,Woskrzenice Duze,Exact,03/07/2017,13/07/2017,Confirmed,African swine fever,,"wild, wild boar",,1,1,,,,,,
229256,OIE,52.093056,23.224056,Europe,Poland,Lubeiskie,Zacisze,Exact,03/07/2017,13/07/2017,Confirmed,African swine fever,,"wild, wild boar",,1,1,,,,,,
229255,OIE,52.104102,23.195386,Europe,Poland,Lubeiskie,Kalilow,Exact,03/07/2017,13/07/2017,Confirmed,African swine fever,,"wild, wild boar",,1,1,,,,,,
229254,OIE,52.413139,23.200806,Europe,Poland,Podlaskie,Stolbce,Exact,03/07/2017,13/07/2017,Confirmed,African swine fever,,"wild, wild boar",,1,1,,,,,,
229253,OIE,52.05,23.263,Europe,Poland,Lubeiskie,Woskrzenice Male,Exact,03/07/2017,13/07/2017,Confirmed,African swine fever,,"wild, wild boar",,1,1,,,,,,
228848,OIE,49.2405,17.694,Europe,Czech Republic,Jihomoravsky,Hvozdná,Exact,03/07/2017,11/07/2017,Confirmed,African swine fever,,"wild, wild boar",,1,1,,,,,,
228820,OIE,49.2397,17.6949,Europe,Czech Republic,Jihomoravsky,Hvozdná,Exact,03/07/2017,05/07/2017,Confirmed,African swine fever,,"wild, wild boar",,1,1,,,,,,
228819,OIE,49.2414,17.6936,Europe,Czech Republic,Jihomoravsky,Hvozdná,Exact,03/07/2017,05/07/2017,Confirmed,African swine fever,,"wild, wild boar",,1,1,,,,,,
228818,OIE,49.2406,17.6934,Europe,Czech Republic,Jihomoravsky,Hvozdná,Exact,03/07/2017,05/07/2017,Confirmed,African swine fever,,"wild, wild boar",,1,1,,,,,,
228817,OIE,49.2405,17.694,Europe,Czech Republic,Jihomoravsky,Hvozdná,Exact,03/07/2017,05/07/2017,Confirmed,African swine fever,,"wild, wild boar",,1,1,,,,,,
228812,OIE,51.62676,46.527842,Europe,Russian Federation,Saratovskaya Oblast,Zvonarevka,Exact,03/07/2017,07/07/2017,Confirmed,African swine fever,,"domestic, swine",1,1,1,0,,,,,
228808,OIE,53.494111,22.770667,Europe,Poland,Podlaskie,"Dawidowizna, Goniadz",Exact,03/07/2017,07/07/2017,Confirmed,African swine fever,,"domestic, swine",1066,1,1,1061,,,,,
229295,OIE,51.681586,46.601403,Europe,Russian Federation,Saratovskaya Oblast,Krasnaya Polyana,Exact,02/07/2017,14/07/2017,Confirmed,African swine fever,,"domestic, swine",52,5,1,,,,,,
228816,OIE,49.2409,17.6958,Europe,Czech Republic,Jihomoravsky,Hvozdná,Exact,02/07/2017,05/07/2017,Confirmed,African swine fever,,"wild, wild boar",,1,1,,,,,,
228815,OIE,49.2373,17.681,Europe,Czech Republic,Jihomoravsky,Luzkovice,Exact,02/07/2017,05/07/2017,Confirmed,African swine fever,,"wild, wild boar",,1,1,,,,,,
228814,OIE,49.2384,17.6837,Europe,Czech Republic,Jihomoravsky,Priluky,Exact,02/07/2017,05/07/2017,Confirmed,African swine fever,,"wild, wild boar",,1,1,,,,,,
228813,OIE,48.343288,23.204113,Europe,Ukraine,Zakarpats'ka,Pryborzhavske,Exact,02/07/2017,07/07/2017,Confirmed,African swine fever,,"wild, wild boar",,2,1,1,,,,,
228811,OIE,50.339643,43.766717,Europe,Russian Federation,Volgogradskaya Oblast,Sergievskoe,Exact,02/07/2017,07/07/2017,Confirmed,African swine fever,,"domestic, swine",302,10,10,,,,,,
230365,OIE,31.325219,34.587519,Asia,Israel,Southern District,Naama farm,Exact,01/07/2017,16/08/2017,Confirmed,Sheep pox and goat pox,,"domestic, sheep",1200,50,0,0,0,,,,
229251,OIE,24.393,120.599331,Asia,Taiwan (Province of China),Taiwan Sheng," Da’an District ",Exact,01/07/2017,11/07/2017,Confirmed,Influenza - Avian,H5N2 HPAI,"domestic, chicken",3100,985,985,2115,,,0,,
229250,OIE,25.030189,121.489521,Asia,Taiwan (Province of China),Taiwan Sheng," Wanhua District",Exact,01/07/2017,11/07/2017,Confirmed,Influenza - Avian,H5N2 HPAI,"domestic, chicken",42,,0,42,,,0,,
228923,OIE,50.0894,48.3538,Europe,Russian Federation,Saratovskaya Oblast,Sysoev,Exact,01/07/2017,13/07/2017,Confirmed,Lumpy skin disease,,"domestic, cattle",441,1,0,,,,,,
228922,OIE,51.4247,50.144374,Europe,Russian Federation,Saratovskaya Oblast,Sologubov,Exact,01/07/2017,13/07/2017,Confirmed,Lumpy skin disease,,"domestic, cattle",100,1,0,,,,,,
228921,OIE,50.0289,48.3646,Europe,Russian Federation,Saratovskaya Oblast,Sysoevsky,Exact,01/07/2017,13/07/2017,Confirmed,Lumpy skin disease,,"domestic, cattle",407,8,0,,,,,,
228920,OIE,50.0945,48.8167,Asia,Kazakhstan,Zapadno-kazachstanskaya,Peredovoj,Exact,01/07/2017,13/07/2017,Confirmed,Lumpy skin disease,,"domestic, cattle",8,1,0,,,,,,
228810,OIE,56.854491,40.573624,Europe,Russian Federation,Ivanovskaya Oblast,Tejkovo,Exact,01/07/2017,07/07/2017,Confirmed,African swine fever,,"domestic, swine",21,1,1,1,,,,,
228807,OIE,51.17369,49.22778,Europe,Russian Federation,Saratovskaya Oblast,Timonin,Exact,01/07/2017,06/07/2017,Confirmed,Lumpy skin disease,,"domestic, cattle",16,1,0,0,0,,,,
228806,OIE,51.2395,49.0046,Europe,Russian Federation,Saratovskaya Oblast,Novoroslyaevka,Exact,01/07/2017,06/07/2017,Confirmed,Lumpy skin disease,,"domestic, cattle",8,1,0,0,0,,,,
229625,National authorities,-7.3425,108.22763,Asia,Indonesia,Jawa Barat,Kota Tasikmalaya,Centroid Admin2,,30/06/2017,Confirmed,Influenza - Avian,H5N1 HPAI,"domestic, duck",,,35,,,,,,
229624,National authorities,-6.18181,106.84286,Asia,Indonesia,Dki Jakarta,Kota Jakarta Pusat,Centroid Admin2,,30/06/2017,Confirmed,Influenza - Avian,H5N1 HPAI,"domestic, chicken",,,12,,,,,,
229623,National authorities,-6.64352,106.18796,Asia,Indonesia,Banten,KABUPATEN LEBAK,Centroid Admin2,,30/06/2017,Confirmed,Influenza - Avian,H5N1 HPAI,"domestic, chicken",,,2,,,,,,
229479,OIE,-26.9,29.2,Africa,South Africa,Mpumalanga,HPAI_H5N8_2017_006,Exact,30/06/2017,24/07/2017,Confirmed,Influenza - Avian,H5N8 HPAI,"wild, unspecified bird",,2,2,,,,,,
229383,OIE,2.1406,30.8986,Africa,Democratic Republic of the Congo,Orientale,Wisaa-Galla,Exact,30/06/2017,19/07/2017,Confirmed,Influenza - Avian,H5N8 HPAI,"domestic, unspecified bird",336,143,143,,,,0,,
228839,OIE,52.114073,23.096346,Europe,Poland,Lubeiskie,Witulin-Kolonia,Exact,30/06/2017,05/07/2017,Confirmed,African swine fever,,"wild, wild boar",,1,1,,,,,,
229346,OIE,22.633621,120.364069,Asia,Taiwan (Province of China),Taiwan Sheng,Fengshan District,Exact,29/06/2017,17/07/2017,Confirmed,Influenza - Avian,H5N2 HPAI,"domestic, chicken",778,44,44,734,,,,,
229248,OIE,22.743333,120.542389,Asia,Taiwan (Province of China),Taiwan Sheng," Yanpu Township ",Exact,29/06/2017,11/07/2017,Confirmed,Influenza - Avian,"H5N8 HPAI, H5N2 HPAI","domestic, duck",2732,,0,2732,,,0,0,0
229243,OIE,50.464817,4.517263,Europe,Belgium,Region wallonne," Wangenies ",Unknown,29/06/2017,12/07/2017,Confirmed,Influenza - Avian,H5N8 HPAI,"domestic, unspecified bird",78,12,12,66,,,0,,
228838,OIE,51.987463,23.323689,Europe,Poland,Lubeiskie,Zalutyn,Exact,29/06/2017,05/07/2017,Confirmed,African swine fever,,"wild, wild boar",,1,1,,,,,,
228837,OIE,52.111679,23.180564,Europe,Poland,Lubeiskie,Hrud,Exact,29/06/2017,05/07/2017,Confirmed,African swine fever,,"wild, wild boar",,1,1,,,,,,
228836,OIE,51.95375,23.591833,Europe,Poland,Lubeiskie,Okczyn,Exact,29/06/2017,05/07/2017,Confirmed,African swine fever,,"wild, wild boar",,1,1,,,,,,
228730,OIE,49.2362,17.6916,Europe,Czech Republic,Jihomoravsky,Lužkovice ,Exact,29/06/2017,30/06/2017,Confirmed,African swine fever,,"wild, wild boar",,1,1,,,,0,,
230258,OIE,53.565278,10.001389,Europe,Germany,Hamburg,Hamburg,Centroid Locality,28/06/2017,01/08/2017,Confirmed,Equine infectious anaemia,,"domestic, equidae",18,1,0,1,0,,,,
229249,OIE,22.736833,120.548583,Asia,Taiwan (Province of China),Taiwan Sheng,Yanpu Township,Exact,28/06/2017,11/07/2017,Confirmed,Influenza - Avian,H5N2 HPAI,"domestic, duck",6016,,0,6016,,,0,0,0
228835,OIE,52.161132,23.175473,Europe,Poland,Lubeiskie,Klonownica Mala,Exact,28/06/2017,05/07/2017,Confirmed,African swine fever,,"wild, wild boar",,1,1,,,,,,
228834,OIE,52.185974,23.352335,Europe,Poland,Lubeiskie,Woroblin,Exact,28/06/2017,05/07/2017,Confirmed,African swine fever,,"wild, wild boar",,1,1,,,,,,
228732,OIE,55.3579,40.47114,Europe,Russian Federation,Vladimirskaya Oblast,"Bobry, Gus’-Khrustal’ny",Centroid Admin1,28/06/2017,30/06/2017,Confirmed,African swine fever,,"domestic, swine",14,4,4,,,,0,,
228833,OIE,52.09917,23.241305,Europe,Poland,Lubeiskie,Szadek,Exact,27/06/2017,05/07/2017,Confirmed,African swine fever,,"wild, wild boar",,1,1,,,,,,
228832,OIE,52.316556,23.067361,Europe,Poland,Podlaskie,Mielnik,Exact,27/06/2017,05/07/2017,Confirmed,African swine fever,,"wild, wild boar",,1,1,,,,,,
228821,OIE,51.005172,35.245227,Europe,Ukraine,Sums'ka,"Myropillya, Krasnopilskyi",Exact,27/06/2017,07/07/2017,Confirmed,Anthrax,,"domestic, sheep",,2,2,,,,,,
228733,National authorities,20.061388,41.307181,Asia,Saudi Arabia,Baha,Baha,Centroid Admin1,27/06/2017,01/07/2017,Confirmed,MERS-CoV ,,,,,,,,Male,70,1,
228729,OIE,49.2377,17.683,Europe,Czech Republic,Jihomoravsky,Želechovice ,Exact,27/06/2017,30/06/2017,Confirmed,African swine fever,,"wild, wild boar",,1,1,,,,0,,
230257,OIE,53.565278,10.001389,Europe,Germany,Hamburg,Hamburg,Centroid Locality,26/06/2017,01/08/2017,Confirmed,Equine infectious anaemia,,"domestic, equidae",14,3,0,3,0,,,,
228847,OIE,5.57775,-74.43536,Americas,Colombia,Cundinamarca,"La Gloria, Vallecita",Exact,26/06/2017,10/07/2017,Confirmed,Foot and mouth disease,O,"domestic, cattle",15,8,0,0,0,,0,,
228831,OIE,53.2825,22.436667,Europe,Poland,Podlaskie,Bartki,Exact,26/06/2017,05/07/2017,Confirmed,African swine fever,,"wild, wild boar",,1,1,,,,,,
228830,OIE,52.075842,23.215617,Europe,Poland,Lubeiskie,Kalilow,Exact,26/06/2017,05/07/2017,Confirmed,African swine fever,,"wild, wild boar",,1,1,,,,,,
228829,OIE,52.039973,23.291981,Europe,Poland,Lubeiskie,Woskrzenice Male,Exact,26/06/2017,05/07/2017,Confirmed,African swine fever,,"wild, wild boar",,1,1,,,,,,
228828,OIE,52.029289,23.589966,Europe,Poland,Lubeiskie,Lebiedziew,Exact,26/06/2017,05/07/2017,Confirmed,African swine fever,,"wild, wild boar",,1,1,,,,,,
228805,OIE,51.384,47.3755,Europe,Russian Federation,Saratovskaya Oblast,Romanovka,Exact,26/06/2017,06/07/2017,Confirmed,Lumpy skin disease,,"domestic, cattle",1,1,0,0,0,,,,
228804,OIE,51.2049,49.12229,Europe,Russian Federation,Saratovskaya Oblast,Dem’yas,Exact,26/06/2017,06/07/2017,Confirmed,Lumpy skin disease,,"domestic, cattle",3,1,0,0,0,,,,
228785,National authorities,50.3349,3.7711,Europe,France,Nord-Pas-de-Calais,Brillon,Exact,26/06/2017,30/06/2017,Confirmed,Influenza - Avian,H5N8 HPAI,"domestic, chicken",347,,150,197,,,0,,
228731,OIE,55.965278,42.5,Europe,Russian Federation,Vladimirskaya Oblast,"Bykasovo, Gorokhovetsky ",Centroid Admin1,26/06/2017,30/06/2017,Confirmed,African swine fever,,"domestic, swine",121,15,15,,,,0,,
228827,OIE,52.464444,23.021444,Europe,Poland,Podlaskie,Zalesie,Exact,25/06/2017,05/07/2017,Confirmed,African swine fever,,"wild, wild boar",,1,1,,,,,,
230256,OIE,48.816667,10.966667,Europe,Germany,Bayern,Tagmersheim,Centroid Locality,24/06/2017,01/08/2017,Confirmed,Equine infectious anaemia,,"domestic, equidae",43,3,0,3,0,,,,
230255,OIE,53.565278,10.001389,Europe,Germany,Hamburg,Hamburg,Centroid Locality,24/06/2017,01/08/2017,Confirmed,Equine infectious anaemia,,"domestic, equidae",3,1,0,1,0,,,,
229242,National authorities,40.68323,20.59238,Europe,Albania,Korce,FSHAT VITHKUQ,Centroid Admin1,24/06/2017,27/06/2017,Confirmed,Lumpy skin disease,,"domestic, cattle",11,2,0,,,,,,
228715,OIE,50.13715,48.562456,Europe,Russian Federation,Saratovskaya Oblast,Alexandrov Gaj,Exact,24/06/2017,29/06/2017,Confirmed,Lumpy skin disease,,"domestic, cattle",3,1,0,0,,,0,,
228843,National authorities,43.489974,82.81848,Asia,China,Xinjiang Uygur Zizhiqu,Ili Kazakh,Centroid Admin2,23/06/2017,07/07/2017,Confirmed,Influenza - Avian,H7N9 LPAI,,,,,,,Male,35,1,1
228826,OIE,52.039973,23.291981,Europe,Poland,Lubeiskie,Woskrzenice Duze,Exact,23/06/2017,05/07/2017,Confirmed,African swine fever,,"wild, wild boar",,1,1,,,,,,
228825,OIE,51.940528,23.614139,Europe,Poland,Lubeiskie,Okczyn,Exact,23/06/2017,05/07/2017,Confirmed,African swine fever,,"wild, wild boar",,1,1,,,,,,
228824,OIE,52.104528,23.284919,Europe,Poland,Lubeiskie,Michalki,Exact,23/06/2017,05/07/2017,Confirmed,African swine fever,,"wild, wild boar",,1,1,,,,,,
228809,OIE,55.926,39.473,Europe,Russian Federation,Vladimirskaya Oblast,Petushki,Exact,23/06/2017,07/07/2017,Confirmed,African swine fever,,"domestic, swine",19,2,1,1,,,,,
228609,National authorities,32.974818,119.563243,Asia,China,Jiangsu Sheng,Jiangsu Sheng,Centroid Admin1,,23/06/2017,Confirmed,Influenza - Avian,H7N9 LPAI,,,,,,,Male,41,1,
228608,National authorities,40.266901,116.593838,Asia,China,Beijing Shi,Beijing Shi,Centroid Admin1,,23/06/2017,Confirmed,Influenza - Avian,H7N9 LPAI,,,,,,,Male,57,1,
228607,National authorities,31.068672,118.352573,Asia,China,Anhui Sheng,Wuhu,Centroid Admin2,,23/06/2017,Confirmed,Influenza - Avian,H7N9 LPAI,,,,,,,Male,61,1,
228606,National authorities,40.266901,116.593838,Asia,China,Beijing Shi,Beijing Shi,Centroid Admin1,,23/06/2017,Confirmed,Influenza - Avian,H7N9 LPAI,,,,,,,Male,31,1,
228605,National authorities,38.191477,116.901776,Asia,China,Hebei Sheng,Cangzhou,Centroid Admin2,,23/06/2017,Confirmed,Influenza - Avian,H7N9 LPAI,,,,,,,Male,71,1,1
228604,National authorities,43.95899,122.087581,Asia,China,Nei Mongol Zizhiqu,Tongliao,Centroid Admin2,,23/06/2017,Confirmed,Influenza - Avian,H7N9 LPAI,,,,,,,Male,50,1,
229294,OIE,32.476244,34.971243,Asia,Israel,Haifa,PARDES HANNA-KARKUR,Exact,22/06/2017,16/07/2017,Confirmed,Influenza - Equine,H3N8,"domestic, horse",12,6,0,0,,,,,
228744,OIE,50.615398,3.284048,Europe,Belgium,Region wallonne,Hertain,Exact,22/06/2017,27/06/2017,Confirmed,Influenza - Avian,H5N8 HPAI,"domestic, unspecified bird",66,38,38,28,0,,,,
228611,National authorities,39.397175,117.389246,Asia,China,Tianjin Shi,Tianjin Shi,Centroid Admin1,,22/06/2017,Confirmed,Influenza - Avian,H7N9 LPAI,,,,,,,Male,61,1,
228602,National authorities,23.402081,45.23404,Asia,Saudi Arabia,Riyad,Riyad,Centroid Admin1,22/06/2017,23/06/2017,Confirmed,MERS-CoV ,,,,,,,,Male,70,1,1
230181,National authorities,30.73956,32.24895,Africa,Egypt,Ismailia,Nasr,Centroid Admin2,21/06/2017,21/06/2017,Confirmed,Influenza - Avian,H5N1 HPAI,"domestic, duck",,21,,21,,,,,
228717,OIE,49.2377,17.6806,Europe,Czech Republic,Jihomoravsky,Želechovice ,Exact,21/06/2017,27/06/2017,Confirmed,African swine fever,,"wild, wild boar",,1,1,,,,,,
228586,OIE,56.1,25.11,Europe,Lithuania,Panevezio,Birzai district municipality,Exact,21/06/2017,22/06/2017,Confirmed,African swine fever,,"wild, wild boar",,1,1,0,0,,,,
228585,OIE,56.1,25.11,Europe,Lithuania,Panevezio,Birzai district municipality,Exact,21/06/2017,22/06/2017,Confirmed,African swine fever,,"wild, wild boar",,1,0,1,0,,,,
228584,OIE,55.4117,26.5517,Europe,Lithuania,Utenos,Ignalina district municipality,Exact,21/06/2017,22/06/2017,Confirmed,African swine fever,,"wild, wild boar",,1,1,0,0,,,,
228583,OIE,55.7175,24.6094,Europe,Lithuania,Panevezio,Panevezys district municipality,Exact,21/06/2017,22/06/2017,Confirmed,African swine fever,,"wild, wild boar",,1,1,0,0,,,,
228582,OIE,55.5803,25.5833,Europe,Lithuania,Utenos,Utena district municipality,Exact,21/06/2017,22/06/2017,Confirmed,African swine fever,,"wild, wild boar",,1,0,1,0,,,,
230179,National authorities,30.21981,30.96286,Africa,Egypt,Giza,Useim,Centroid Admin2,20/06/2017,21/06/2017,Confirmed,Influenza - Avian,H5N1 HPAI,"domestic, duck",,10,,10,,,,,
230178,National authorities,28.10054,30.64102,Africa,Egypt,Menia,Habashe,Centroid Admin2,20/06/2017,21/06/2017,Confirmed,Influenza - Avian,H5N1 HPAI,"domestic, chicken",,20,,20,,,,,
229293,OIE,32.745137,35.277818,Asia,Israel,Northern,Zippori,Exact,20/06/2017,16/07/2017,Confirmed,Influenza - Equine,H3N8,"domestic, horse",30,10,0,0,,,,,
229241,National authorities,40.02238,20.24602,Europe,Albania,Gjirokaster,PICAR,Centroid Admin1,20/06/2017,24/06/2017,Confirmed,Lumpy skin disease,,"domestic, cattle",54,1,1,,,,,,
228846,OIE,5.55218,-74.43082,Americas,Colombia,Cundinamarca," Los Totumos, Minasal ",Exact,20/06/2017,10/07/2017,Confirmed,Foot and mouth disease,O,"domestic, cattle",68,30,2,0,0,,0,,
228786,OIE,-26.8,28.8,Africa,South Africa,Mpumalanga,"HPAI_H5N8_2017_002, Dipaleseng",Exact,20/06/2017,26/06/2017,Confirmed,Influenza - Avian,H5N8 HPAI,"domestic, chicken",243000,25000,25000,0,0,,0,,
228743,OIE,50.46704,4.300151,Europe,Belgium,Region wallonne,Trazegnies,Exact,20/06/2017,27/06/2017,Confirmed,Influenza - Avian,H5N8 HPAI,"domestic, unspecified bird",20,19,19,1,0,,,,
228735,OIE,52.283823,7.175625,Europe,Germany,Niedersachsen,Bad Bentheim,Exact,20/06/2017,28/06/2017,Confirmed,Equine infectious anaemia,,"domestic, horse",18,1,0,1,0,,0,,
228574,OIE,50.79913,3.21386,Europe,Belgium,Vlaams Gewest,Lauwe - Menen,Exact,20/06/2017,21/06/2017,Confirmed,Influenza - Avian,H5N8 HPAI,"domestic, unspecified bird",972,0,0,972,0,,,,
228573,OIE,50.057546,4.438042,Europe,Belgium,Region wallonne,Dailly - Couvin,Exact,20/06/2017,21/06/2017,Confirmed,Influenza - Avian,H5N8 HPAI,"domestic, unspecified bird",47,35,35,12,0,,,,
228572,OIE,50.626722,3.806665,Europe,Belgium,Region wallonne,Maffle - Ath,Exact,20/06/2017,21/06/2017,Confirmed,Influenza - Avian,H5N8 HPAI,"domestic, unspecified bird",120,22,22,98,0,,,,
230180,National authorities,29.44118,30.81504,Africa,Egypt,Fayoum,Sanhour,Centroid Admin2,19/06/2017,21/06/2017,Confirmed,Influenza - Avian,H5N1 HPAI,"domestic, chicken",,5000,,5000,,,,,
229240,National authorities,40.35514,19.62631,Europe,Albania,Vlore,GJORM,Centroid Admin1,19/06/2017,21/06/2017,Confirmed,Lumpy skin disease,,"domestic, cattle",4,2,0,,,,,,
229239,National authorities,40.35514,19.62631,Europe,Albania,Vlore,GJORM,Centroid Admin1,19/06/2017,21/06/2017,Confirmed,Lumpy skin disease,,"domestic, cattle",2,1,0,,,,,,
228748,OIE,23.242137,120.282777,Asia,Taiwan (Province of China),Taiwan Sheng,Xiaying District,Exact,19/06/2017,27/06/2017,Confirmed,Influenza - Avian,H5N8 HPAI,"domestic, duck",6796,0,0,6796,0,,,,
228747,OIE,23.59172,120.25441,Asia,Taiwan (Province of China),Taiwan Sheng,Shuilin Township,Exact,19/06/2017,27/06/2017,Confirmed,Influenza - Avian,H5N2 HPAI,"domestic, turkey",1500,319,319,1181,0,,,,
228706,National authorities,23.7352,117.52,Asia,China,Fujian Sheng,Zhangzhou City,Exact,,19/06/2017,Confirmed,Influenza - Avian,H7N9 LPAI,"domestic, chicken",,,1,,,,0,,
228705,National authorities,43.6225,122.2558,Asia,China,Nei Mongol Zizhiqu,Tongliao,Exact,,19/06/2017,Confirmed,Influenza - Avian,H7N9 LPAI,"domestic, chicken",,,1,,,,,,
228704,National authorities,38.9276,106.4992,Asia,China,Ningxia Huizu Zizhiqu,Shizuishan,Exact,,19/06/2017,Confirmed,Influenza - Avian,H7N9 LPAI,"domestic, chicken",,,1,,,,,,
228703,National authorities,32.521,117.7178,Asia,China,Anhui Sheng,Chuzhou,Exact,,19/06/2017,Confirmed,Influenza - Avian,H7N9 LPAI,"domestic, chicken",,,1,,,,,,
228702,National authorities,35.0833,117.15,Asia,China,Shandong Sheng,Zaozhuang,Exact,,19/06/2017,Confirmed,Influenza - Avian,H7N9 LPAI,"domestic, chicken",,,1,,,,,,
228701,National authorities,40.0692,113.2893,Asia,China,Shanxi Sheng,Datong,Exact,,19/06/2017,Confirmed,Influenza - Avian,H7N9 LPAI,"domestic, chicken",,,2,,,,,,
228700,National authorities,32.8575,114.1011,Asia,China,Henan Sheng,Zhumadian,Exact,,19/06/2017,Confirmed,Influenza - Avian,H7N9 LPAI,"domestic, chicken",,,1,,,,,,
228699,National authorities,40.3189,97.1218,Asia,China,Gansu Sheng,Jiuquan,Exact,,19/06/2017,Confirmed,Influenza - Avian,H7N9 LPAI,"domestic, chicken",,,2,,,,,,
228698,National authorities,39.5483,116.7133,Asia,China,Hebei Sheng,Langfang,Exact,,19/06/2017,Confirmed,Influenza - Avian,H7N9 LPAI,"domestic, chicken",,,1,,,,,,
228697,National authorities,38.8146,116.0667,Asia,China,Hebei Sheng,Cangzhou,Exact,,19/06/2017,Confirmed,Influenza - Avian,H7N9 LPAI,"domestic, chicken",,,1,,,,,,
228696,National authorities,24.4104,111.5354,Asia,China,Guangxi Zhuangzu Zizhiqu,Hezhou,Exact,,19/06/2017,Confirmed,Influenza - Avian,H7N9 LPAI,"domestic, chicken, environmental sample, unspecified bird",,,2,,,,,,
228695,National authorities,24.525,111.3051,Asia,China,Guangxi Zhuangzu Zizhiqu,Hezhou,Exact,,19/06/2017,Confirmed,Influenza - Avian,H7N9 LPAI,"environmental sample, unspecified bird",,,1,,,,,,
228694,National authorities,24.5281,111.2964,Asia,China,Guangxi Zhuangzu Zizhiqu,Hezhou,Exact,,19/06/2017,Confirmed,Influenza - Avian,H7N9 LPAI,"domestic, chicken, environmental sample, unspecified bird, domestic, duck",,,3,,,,,,
228693,National authorities,22.2737,109.9912,Asia,China,Guangxi Zhuangzu Zizhiqu,Yulin,Exact,,19/06/2017,Confirmed,Influenza - Avian,H7N9 LPAI,"domestic, chicken",,,1,,,,,,
228692,National authorities,23.4771,111.2829,Asia,China,Guangxi Zhuangzu Zizhiqu,Wuzhou,Exact,,19/06/2017,Confirmed,Influenza - Avian,H7N9 LPAI,"domestic, chicken",,,1,,,,,,
228691,National authorities,29.8292,107.0705,Asia,China,Chongqing Shi,Changshou District,Exact,,19/06/2017,Confirmed,Influenza - Avian,H7N9 LPAI,"domestic, chicken, environmental sample, unspecified bird",,,2,,,,,,
228690,National authorities,29.8432,107.082,Asia,China,Chongqing Shi,Changshou District,Exact,,19/06/2017,Confirmed,Influenza - Avian,H7N9 LPAI,"domestic, chicken",,,1,,,,,,
228689,National authorities,31.9432,108.6651,Asia,China,Chongqing Shi,Chengkou County,Exact,,19/06/2017,Confirmed,Influenza - Avian,H7N9 LPAI,"domestic, chicken",,,1,,,,,,
228688,National authorities,29.5406,106.5839,Asia,China,Chongqing Shi,Nan'an District,Exact,,19/06/2017,Confirmed,Influenza - Avian,H7N9 LPAI,"domestic, chicken",,,1,,,,,,
228687,National authorities,29.6395,106.5861,Asia,China,Chongqing Shi,Yubei District,Exact,,19/06/2017,Confirmed,Influenza - Avian,H7N9 LPAI,"domestic, chicken",,,1,,,,,,
228686,National authorities,29.5446,106.5408,Asia,China,Chongqing Shi,Yuzhong District,Exact,,19/06/2017,Confirmed,Influenza - Avian,H7N9 LPAI,"domestic, chicken",,,1,,,,,,
228685,National authorities,29.5548,106.5733,Asia,China,Chongqing Shi,Yuzhong District,Exact,,19/06/2017,Confirmed,Influenza - Avian,H7N9 LPAI,"domestic, chicken",,,1,,,,,,
228684,National authorities,29.5595,106.5521,Asia,China,Chongqing Shi,Yuzhong District,Exact,,19/06/2017,Confirmed,Influenza - Avian,H7N9 LPAI,"domestic, chicken",,,1,,,,,,
228683,National authorities,29.5791,106.5586,Asia,China,Chongqing Shi,Jiangbei District,Exact,,19/06/2017,Confirmed,Influenza - Avian,H7N9 LPAI,"domestic, chicken",,,1,,,,,,
228682,National authorities,29.5717,106.5471,Asia,China,Chongqing Shi,Jiangbei District,Exact,,19/06/2017,Confirmed,Influenza - Avian,H7N9 LPAI,"domestic, chicken",,,1,,,,,,
228681,National authorities,28.9129,111.9567,Asia,China,Hunan Sheng,Changde,Exact,,19/06/2017,Confirmed,Influenza - Avian,H7N9 LPAI,"domestic, chicken, domestic, duck",,,1,,,,,,
228680,National authorities,28.6749,112.8818,Asia,China,Hunan Sheng,Yueyang,Exact,,19/06/2017,Confirmed,Influenza - Avian,H7N9 LPAI,"domestic, chicken, environmental sample, unspecified bird, domestic, duck",,,3,,,,,,
228679,National authorities,25.7058,116.7606,Asia,China,Fujian Sheng,Longyan,Exact,,19/06/2017,Confirmed,Influenza - Avian,H7N9 LPAI,"environmental sample, unspecified bird",,,1,,,,,,
228678,National authorities,25.5667,116.7833,Asia,China,Fujian Sheng,Longyan,Exact,,19/06/2017,Confirmed,Influenza - Avian,H7N9 LPAI,"domestic, chicken",,,1,,,,,,
228677,National authorities,24.9453,116.5152,Asia,China,Fujian Sheng,Longyan,Exact,,19/06/2017,Confirmed,Influenza - Avian,H7N9 LPAI,"domestic, chicken",,,1,,,,,,
228676,National authorities,25.0917,116.1051,Asia,China,Fujian Sheng,Longyan,Exact,,19/06/2017,Confirmed,Influenza - Avian,H7N9 LPAI,"domestic, chicken, environmental sample, unspecified bird",,,2,,,,,,
228675,National authorities,24.7223,116.7347,Asia,China,Fujian Sheng,Longyan,Exact,,19/06/2017,Confirmed,Influenza - Avian,H7N9 LPAI,"environmental sample, unspecified bird",,,1,,,,,,
228674,National authorities,24.7216,116.7285,Asia,China,Fujian Sheng,Longyan,Exact,,19/06/2017,Confirmed,Influenza - Avian,H7N9 LPAI,"domestic, chicken",,,1,,,,,,
228673,National authorities,25.0952,117.0389,Asia,China,Fujian Sheng,Longyan,Exact,,19/06/2017,Confirmed,Influenza - Avian,H7N9 LPAI,"environmental sample, unspecified bird",,,1,,,,,,
228672,National authorities,25.0666,117.028,Asia,China,Fujian Sheng,Longyan,Exact,,19/06/2017,Confirmed,Influenza - Avian,H7N9 LPAI,"environmental sample, unspecified bird",,,1,,,,,,
228671,National authorities,24.5261,117.905,Asia,China,Fujian Sheng,Zhangzhou City,Exact,,19/06/2017,Confirmed,Influenza - Avian,H7N9 LPAI,"domestic, chicken, environmental sample, unspecified bird",,,2,,,,,,
228670,National authorities,24.4458,117.8173,Asia,China,Fujian Sheng,Zhangzhou City,Exact,,19/06/2017,Confirmed,Influenza - Avian,H7N9 LPAI,"domestic, chicken, environmental sample, unspecified bird",,,2,,,,,,
228669,National authorities,24.4483,117.83,Asia,China,Fujian Sheng,Zhangzhou City,Exact,,19/06/2017,Confirmed,Influenza - Avian,H7N9 LPAI,"domestic, chicken, environmental sample, unspecified bird",,,2,,,,,,
228668,National authorities,24.5214,117.6556,Asia,China,Fujian Sheng,Zhangzhou City,Exact,,19/06/2017,Confirmed,Influenza - Avian,H7N9 LPAI,"environmental sample, unspecified bird",,,1,,,,,,
228667,National authorities,24.5122,117.6516,Asia,China,Fujian Sheng,Zhangzhou City,Exact,,19/06/2017,Confirmed,Influenza - Avian,H7N9 LPAI,"domestic, chicken",,,1,,,,,,
228666,National authorities,24.5221,117.6747,Asia,China,Fujian Sheng,Zhangzhou City,Exact,,19/06/2017,Confirmed,Influenza - Avian,H7N9 LPAI,"domestic, chicken",,,1,,,,,,
228665,National authorities,24.5114,117.6542,Asia,China,Fujian Sheng,Zhangzhou City,Exact,,19/06/2017,Confirmed,Influenza - Avian,H7N9 LPAI,"domestic, chicken",,,1,,,,,,
228664,National authorities,23.8667,117.0833,Asia,China,Fujian Sheng,Zhangzhou City,Exact,,19/06/2017,Confirmed,Influenza - Avian,H7N9 LPAI,"domestic, chicken",,,1,,,,,,
228663,National authorities,24.1086,117.6283,Asia,China,Fujian Sheng,Zhangzhou City,Exact,,19/06/2017,Confirmed,Influenza - Avian,H7N9 LPAI,"environmental sample, unspecified bird, domestic, chicken, domestic, duck, domestic, unspecified bird",,,4,,,,,,
228662,National authorities,24.1169,117.6112,Asia,China,Fujian Sheng,Zhangzhou City,Exact,,19/06/2017,Confirmed,Influenza - Avian,H7N9 LPAI,"domestic, chicken",,,1,,,,,,
228661,National authorities,24.1168,117.6169,Asia,China,Fujian Sheng,Zhangzhou City,Exact,,19/06/2017,Confirmed,Influenza - Avian,H7N9 LPAI,"domestic, chicken, environmental sample, unspecified bird",,,2,,,,,,
228660,National authorities,23.6964,117.434,Asia,China,Fujian Sheng,Zhangzhou City,Exact,,19/06/2017,Confirmed,Influenza - Avian,H7N9 LPAI,"domestic, chicken, environmental sample, unspecified bird",,,2,,,,,,
228659,National authorities,23.6987,117.4276,Asia,China,Fujian Sheng,Zhangzhou City,Exact,,19/06/2017,Confirmed,Influenza - Avian,H7N9 LPAI,"domestic, chicken",,,1,,,,,,
228658,National authorities,23.7332,117.5183,Asia,China,Fujian Sheng,Zhangzhou City,Exact,,19/06/2017,Confirmed,Influenza - Avian,H7N9 LPAI,"environmental sample, unspecified bird, domestic, chicken, domestic, duck, domestic, unspecified bird",,,4,,,,,,
228657,National authorities,25.4986,119.7903,Asia,China,Fujian Sheng,Fuzhou City,Exact,,19/06/2017,Confirmed,Influenza - Avian,H7N9 LPAI,"domestic, duck",,,1,,,,,,
228656,National authorities,27.3254,118.1213,Asia,China,Fujian Sheng,Nanping,Exact,,19/06/2017,Confirmed,Influenza - Avian,H7N9 LPAI,"domestic, chicken",,,1,,,,,,
228655,National authorities,27.3252,118.1213,Asia,China,Fujian Sheng,Nanping,Exact,,19/06/2017,Confirmed,Influenza - Avian,H7N9 LPAI,"domestic, duck",,,1,,,,,,
228581,OIE,55.2211,24.4322,Europe,Lithuania,Kauno,Jonava district municipality,Exact,19/06/2017,22/06/2017,Confirmed,African swine fever,,"wild, wild boar",,1,1,0,0,,,,
228580,OIE,55.5236,24.9381,Europe,Lithuania,Utenos,Anyksciai district municipality,Exact,19/06/2017,22/06/2017,Confirmed,African swine fever,,"wild, wild boar",,1,1,0,0,,,,
228565,National authorities,23.402081,45.23404,Asia,Saudi Arabia,Riyad,Riyad,Centroid Admin1,,19/06/2017,Confirmed,MERS-CoV ,,,,,,,,Male,42,1,
228558,OIE,-26.9,28.6,Africa,South Africa,Mpumalanga,Dipaleseng,Exact,19/06/2017,22/06/2017,Confirmed,Influenza - Avian,H5N8 HPAI,"domestic, chicken",24000,5000,5000,0,0,,,,
228537,National authorities,26.714816,101.716717,Asia,China,Sichuan Sheng,Renhe District,Centroid Admin2,,19/06/2017,Confirmed,Influenza - Avian,H7N9 LPAI,,,,,,,Male,79,1,1
230177,National authorities,30.42615,32.18335,Africa,Egypt,Ismailia,Aboswear,Centroid Admin2,18/06/2017,18/06/2017,Confirmed,Influenza - Avian,H5N1 HPAI,"domestic, duck",,23,,23,,,,,
229238,National authorities,40.3604,19.92765,Europe,Albania,Tepelene,ILIRAS,Centroid Admin1,18/06/2017,23/06/2017,Confirmed,Lumpy skin disease,,"domestic, cattle",1,1,0,,,,,,
229237,National authorities,40.3604,19.92765,Europe,Albania,Tepelene,KALIVAÇ,Centroid Admin1,18/06/2017,21/06/2017,Confirmed,Lumpy skin disease,,"domestic, cattle",3,1,0,,,,,,
229236,National authorities,40.28203,20.31423,Europe,Albania,Permet,BUAL,Centroid Admin1,18/06/2017,18/06/2017,Confirmed,Lumpy skin disease,,"domestic, cattle",2,1,0,,,,,,
229235,National authorities,40.35514,19.62631,Europe,Albania,Vlore,LEPENICE,Centroid Admin1,18/06/2017,20/06/2017,Confirmed,Lumpy skin disease,,"domestic, cattle",2,1,0,,,,,,
228603,National authorities,22.92344487,50.14819659,Asia,Saudi Arabia,Eastern Province,Dammam,Unknown,18/06/2017,25/06/2017,Confirmed,MERS-CoV ,,,,,,,,Female,30,1,
228538,National authorities,26.714816,101.716717,Asia,China,Sichuan Sheng,Renhe District,Centroid Admin2,,18/06/2017,Confirmed,Influenza - Avian,H7N9 LPAI,,,,,,,Male,48,1,
229292,OIE,33.006585,35.097194,Asia,Israel,Northern,Naharriya,Exact,17/06/2017,16/07/2017,Confirmed,Influenza - Equine,H3N8,"domestic, horse",1,1,0,0,,,,,
229291,OIE,31.246874,34.858851,Asia,Israel,Southern District,Tel Sheva,Exact,17/06/2017,16/07/2017,Confirmed,Influenza - Equine,H3N8,"domestic, horse",2,1,0,0,,,,,
229234,National authorities,40.3604,19.92765,Europe,Albania,Tepelene,KRAHES,Centroid Admin1,17/06/2017,21/06/2017,Confirmed,Lumpy skin disease,,"domestic, cattle",2,1,0,,,,,,
229233,National authorities,40.28203,20.31423,Europe,Albania,Permet,PETRAN,Centroid Admin1,17/06/2017,22/06/2017,Confirmed,Lumpy skin disease,,"domestic, cattle",3,1,0,,,,,,
228734,OIE,51.31183,6.7893,Europe,Germany,Nordrhein-Westfalen,Duesseldorf,Exact,17/06/2017,28/06/2017,Confirmed,Equine infectious anaemia,,"domestic, horse",57,1,0,1,0,,,,
228579,OIE,56.2631,24.9672,Europe,Lithuania,Panevezio,Birzai district municipality,Exact,17/06/2017,22/06/2017,Confirmed,African swine fever,,"wild, wild boar",,21,21,0,0,,,,
228518,National authorities,23.402081,45.23404,Asia,Saudi Arabia,Riyad,Riyad,Centroid Admin1,,17/06/2017,Confirmed,MERS-CoV ,,,,,,,,Male,41,1,
229232,National authorities,41.57542,20.0152,Europe,Albania,Mat,BUSHKASH,Centroid Admin1,16/06/2017,19/06/2017,Confirmed,Lumpy skin disease,,"domestic, cattle",3,1,0,,,,,,
229231,National authorities,40.35514,19.62631,Europe,Albania,Vlore,PLOÇE,Centroid Admin1,16/06/2017,17/06/2017,Confirmed,Lumpy skin disease,,"domestic, cattle",4,1,0,,,,,,
229230,National authorities,40.3604,19.92765,Europe,Albania,Tepelene,KRAHES,Centroid Admin1,16/06/2017,21/06/2017,Confirmed,Lumpy skin disease,,"domestic, cattle",4,1,0,,,,,,
229229,National authorities,40.35514,19.62631,Europe,Albania,Vlore,GJORM,Centroid Admin1,16/06/2017,20/06/2017,Confirmed,Lumpy skin disease,,"domestic, cattle",1,1,0,,,,,,
228790,National authorities,23.402081,45.23404,Asia,Saudi Arabia,Riyad,Riyad,Centroid Admin1,16/06/2017,24/06/2017,Confirmed,MERS-CoV ,,,,,,,,Male,60,1,
228746,OIE,22.422472,120.577306,Asia,Taiwan (Province of China),Taiwan Sheng,Fangliao Township,Exact,16/06/2017,27/06/2017,Confirmed,Influenza - Avian,H5N2 HPAI,"domestic, duck",2406,0,0,2406,0,,,,
228601,National authorities,24.02,38.18,Asia,Saudi Arabia,Madinah,Yambou,Unknown,16/06/2017,22/06/2017,Confirmed,MERS-CoV ,,,,,,,,Male,85,1,1
228578,OIE,54.9308,24.5447,Europe,Lithuania,Kauno,Kaisiadorys district municipality,Exact,16/06/2017,22/06/2017,Confirmed,African swine fever,,"wild, wild boar",,1,0,1,0,,,,
228577,OIE,55.5328,24.4944,Europe,Lithuania,Panevezio,Panevezys district municipality,Exact,16/06/2017,22/06/2017,Confirmed,African swine fever,,"wild, wild boar",,1,0,1,0,,,,
228555,OIE,50.380586,3.69829,Europe,Belgium,Region wallonne,Baisieux,Exact,16/06/2017,19/06/2017,Confirmed,Influenza - Avian,H5N8 HPAI,"domestic, unspecified bird",26,21,21,5,0,,,,
228529,National authorities,27.086604,105.024973,Asia,China,Guizhou Sheng,Bijie,Centroid Admin2,,16/06/2017,Confirmed,Influenza - Avian,H7N9 LPAI,,,,,,,Male,68,1,
228528,National authorities,40.266901,116.593838,Asia,China,Beijing Shi,Beijing Shi,Centroid Admin1,,16/06/2017,Confirmed,Influenza - Avian,H7N9 LPAI,,,,,,,Male,54,1,
228527,National authorities,28.2274,113.175646,Asia,China,Hunan Sheng,Changsha,Centroid Admin2,,16/06/2017,Confirmed,Influenza - Avian,H7N9 LPAI,,,,,,,Male,41,1,
228526,National authorities,29.705947,121.444841,Asia,China,Zhejiang Sheng,Ningbo,Centroid Admin2,,16/06/2017,Confirmed,Influenza - Avian,H7N9 LPAI,,,,,,,Female,67,1,
228525,National authorities,23.98256,106.707275,Asia,China,Guangxi Zhuangzu Zizhiqu,Baise,Centroid Admin2,,16/06/2017,Confirmed,Influenza - Avian,H7N9 LPAI,,,,,,,Male,55,1,1
228516,National authorities,25.28,45.869,Asia,Saudi Arabia,Riyad,Thadiq City,Unknown,16/06/2017,18/06/2017,Confirmed,MERS-CoV ,,,,,,,,Male,22,1,
228490,National authorities,46.333333,132.2,Asia,China,Heilongjiang Sheng,Baoqing County ,Unknown,16/06/2017,16/06/2017,Confirmed,Influenza - Avian,H7N9 HPAI,"domestic, chicken",36110,20150,19500,16610,,,0,,
229382,OIE,1.9645,30.5227,Africa,Democratic Republic of the Congo,Orientale,Muganga,Exact,15/06/2017,19/07/2017,Confirmed,Influenza - Avian,H5N8 HPAI,"domestic, unspecified bird",,189,189,,,,0,,
229290,OIE,31.923126,34.822511,Asia,Israel,Central District,Nezer Sereni,Exact,15/06/2017,16/07/2017,Confirmed,Influenza - Equine,H3N8,"domestic, horse",60,30,0,0,,,,,
229289,OIE,31.815739,34.797608,Asia,Israel,Central District,Qidron,Exact,15/06/2017,16/07/2017,Confirmed,Influenza - Equine,H3N8,"domestic, horse",20,15,0,0,,,,,
229228,National authorities,40.35514,19.62631,Europe,Albania,Vlore,DUKAT FSHAT,Centroid Admin1,15/06/2017,17/06/2017,Confirmed,Lumpy skin disease,,"domestic, cattle",2,1,0,,,,,,
229227,National authorities,40.02238,20.24602,Europe,Albania,Gjirokaster,MASHKULLORE,Centroid Admin1,15/06/2017,23/06/2017,Confirmed,Lumpy skin disease,,"domestic, cattle",35,1,1,,,,,,
229226,National authorities,40.3604,19.92765,Europe,Albania,Tepelene,KRAHES,Centroid Admin1,15/06/2017,21/06/2017,Confirmed,Lumpy skin disease,,"domestic, cattle",2,1,0,,,,,,
229225,National authorities,40.35514,19.62631,Europe,Albania,Vlore,GJORM,Centroid Admin1,15/06/2017,17/06/2017,Confirmed,Lumpy skin disease,,"domestic, cattle",2,1,0,,,,,,
229224,National authorities,40.35514,19.62631,Europe,Albania,Vlore,LEPENICE,Centroid Admin1,15/06/2017,17/06/2017,Confirmed,Lumpy skin disease,,"domestic, cattle",2,1,0,,,,,,
228610,National authorities,26.67,106.62,Asia,China,Guizhou Sheng,"Baiyun District, Guiyang City",Centroid Admin2,15/06/2017,19/06/2017,Confirmed,Influenza - Avian,H7N9 LPAI,,,,,,,Male,33,1,
228576,OIE,55.0831,24.0469,Europe,Lithuania,Kauno,Kaunas district municipality,Exact,15/06/2017,22/06/2017,Confirmed,African swine fever,,"wild, wild boar",,1,0,1,0,,,,
228575,OIE,55.0831,24.0469,Europe,Lithuania,Kauno,Kaunas district municipality,Exact,15/06/2017,22/06/2017,Confirmed,African swine fever,,"wild, wild boar",,1,0,1,0,,,,
228571,OIE,23.220206,120.234848,Asia,Taiwan (Province of China),Taiwan Sheng,Xiaying District,Exact,15/06/2017,23/06/2017,Confirmed,Influenza - Avian,H5N2 HPAI,"domestic, chicken",37000,2928,2928,34072,0,,,,
228506,OIE,51.250301,3.129958,Europe,Belgium,Vlaams Gewest,Houtave,Exact,15/06/2017,15/06/2017,Confirmed,Influenza - Avian,H5N8 HPAI,"domestic, unspecified bird",43,17,17,26,0,,,,
230176,National authorities,30.34438,31.18908,Africa,Egypt,Kalyoubia,Met kananh,Centroid Admin2,14/06/2017,15/06/2017,Confirmed,Influenza - Avian,H5N1 HPAI,"domestic, duck",,2100,,2100,,,,,
229223,National authorities,40.35514,19.62631,Europe,Albania,Vlore,DUKAT FSHAT,Centroid Admin1,14/06/2017,17/06/2017,Confirmed,Lumpy skin disease,,"domestic, cattle",2,1,0,,,,,,
229222,National authorities,40.35514,19.62631,Europe,Albania,Vlore,DUKAT FSHAT,Centroid Admin1,14/06/2017,16/06/2017,Confirmed,Lumpy skin disease,,"domestic, cattle",1,1,0,,,,,,
229221,National authorities,40.35514,19.62631,Europe,Albania,Vlore,GJORM,Centroid Admin1,14/06/2017,17/06/2017,Confirmed,Lumpy skin disease,,"domestic, cattle",3,1,0,,,,,,
228505,OIE,50.573545,4.061733,Europe,Belgium,Region wallonne,Soignies,Exact,14/06/2017,15/06/2017,Confirmed,Influenza - Avian,H5N8 HPAI,"domestic, unspecified bird",33,18,18,15,0,,,,
229220,National authorities,40.02238,20.24602,Europe,Albania,Gjirokaster,BULO,Centroid Admin1,13/06/2017,15/06/2017,Confirmed,Lumpy skin disease,,"domestic, cattle",3,1,0,,,,,,
229219,National authorities,40.35514,19.62631,Europe,Albania,Vlore,PLOÇE,Centroid Admin1,13/06/2017,15/06/2017,Confirmed,Lumpy skin disease,,"domestic, cattle",6,2,0,,,,,,
229218,National authorities,40.28203,20.31423,Europe,Albania,Permet,RABAN,Centroid Admin1,13/06/2017,16/06/2017,Confirmed,Lumpy skin disease,,"domestic, cattle",4,1,0,,,,,,
229217,National authorities,40.28203,20.31423,Europe,Albania,Permet,ZHEPE,Centroid Admin1,13/06/2017,15/06/2017,Confirmed,Lumpy skin disease,,"domestic, cattle",1,1,0,,,,,,
228570,OIE,22.87278,120.31427,Asia,Taiwan (Province of China),Taiwan Sheng,Alian District,Exact,13/06/2017,23/06/2017,Confirmed,Influenza - Avian,H5N2 HPAI,"domestic, chicken",2252,44,44,2208,0,,,,
228569,OIE,23.721533,120.257885,Asia,Taiwan (Province of China),Taiwan Sheng,Dongshi Township,Exact,13/06/2017,23/06/2017,Confirmed,Influenza - Avian,H5N2 HPAI,"domestic, chicken",12584,1576,1576,11008,0,,,,
228517,National authorities,23.402081,45.23404,Asia,Saudi Arabia,Riyad,Riyad,Centroid Admin1,13/06/2017,16/06/2017,Confirmed,MERS-CoV ,,,,,,,,Male,68,1,1
228513,OIE,54.0214,24.7461,Europe,Lithuania,Alytaus,municipality of Varena,Exact,13/06/2017,15/06/2017,Confirmed,African swine fever,,"domestic, swine",3,2,0,3,0,,,,
228512,OIE,55.4956,24.9144,Europe,Lithuania,Utenos,Anyksciai district municipality,Exact,13/06/2017,15/06/2017,Confirmed,African swine fever,,"wild, wild boar",,1,0,1,0,,,,
228511,OIE,55.0461,24.2247,Europe,Lithuania,Kauno,Jonava district municipality,Exact,13/06/2017,15/06/2017,Confirmed,African swine fever,,"wild, wild boar",,1,0,1,0,,,,
228510,OIE,55.0461,24.2247,Europe,Lithuania,Kauno,Jonava district municipality,Exact,13/06/2017,15/06/2017,Confirmed,African swine fever,,"wild, wild boar",,3,3,0,0,,,,
228504,OIE,50.026594,5.522735,Europe,Belgium,Region wallonne,Amberloup,Exact,13/06/2017,15/06/2017,Confirmed,Influenza - Avian,H5N8 HPAI,"domestic, unspecified bird",25,10,10,15,0,,,,
228457,National authorities,23.402081,45.23404,Asia,Saudi Arabia,Riyad,Riyad,Centroid Admin1,13/06/2017,15/06/2017,Confirmed,MERS-CoV ,,,,,,,,Male,67,1,
228456,National authorities,23.402081,45.23404,Asia,Saudi Arabia,Riyad,Riyad,Centroid Admin1,13/06/2017,15/06/2017,Confirmed,MERS-CoV ,,,,,,,,Male,79,1,1
229216,National authorities,40.68323,20.59238,Europe,Albania,Korce,VELITERNE,Centroid Admin1,12/06/2017,15/06/2017,Confirmed,Lumpy skin disease,,"domestic, cattle",4,2,1,,,,,,
228745,OIE,23.216385,120.236447,Asia,Taiwan (Province of China),Taiwan Sheng,Madou District,Exact,12/06/2017,27/06/2017,Confirmed,Influenza - Avian,H5N2 HPAI,"domestic, duck",,1,1,0,0,,,,
228742,OIE,31.391758,34.757396,Asia,Israel,Southern District,RAHAT,Exact,12/06/2017,24/06/2017,Confirmed,Sheep pox and goat pox,,"domestic, sheep",32,21,5,0,0,,,,
228568,OIE,23.691739,120.235827,Asia,Taiwan (Province of China),Taiwan Sheng,Dongshi Township,Exact,12/06/2017,23/06/2017,Confirmed,Influenza - Avian,H5N2 HPAI,"domestic, turkey",1920,739,739,1181,0,,,,
228509,OIE,55.7142,24.7225,Europe,Lithuania,Utenos,Anyksciai district municipality,Exact,12/06/2017,15/06/2017,Confirmed,African swine fever,,"wild, wild boar",,2,2,0,0,,,,
228455,National authorities,27.096804,41.73943,Asia,Saudi Arabia,Hail,Hail,Centroid Admin1,12/06/2017,15/06/2017,Confirmed,MERS-CoV ,,,,,,,,Male,29,1,
228450,National authorities,23.402081,45.23404,Asia,Saudi Arabia,Riyad,Riyad,Centroid Admin1,12/06/2017,14/06/2017,Confirmed,MERS-CoV ,,,,,,,,Male,59,1,
228407,National authorities,23.402081,45.23404,Asia,Saudi Arabia,Riyad,Riyad,Centroid Admin1,12/06/2017,13/06/2017,Confirmed,MERS-CoV ,,,,,,,,Male,58,1,
228353,National authorities,23.402081,45.23404,Asia,Saudi Arabia,Riyad,Riyad,Centroid Admin1,,12/06/2017,Confirmed,MERS-CoV ,,,,,,,,Female,45,1,
228595,OIE,6.173611,-71.929792,Americas,Colombia,Arauca,La Marota,Exact,11/06/2017,24/06/2017,Confirmed,Foot and mouth disease,O,"domestic, cattle",136,7,0,0,0,,,,
228567,OIE,23.862076,120.409937,Asia,Taiwan (Province of China),Taiwan Sheng,Zhutang Township,Exact,11/06/2017,23/06/2017,Confirmed,Influenza - Avian,H5N2 HPAI,"domestic, chicken",9340,710,710,8630,0,,,,
228550,OIE,49.02217,44.324,Europe,Russian Federation,Volgogradskaya Oblast,Varlamov,Exact,11/06/2017,16/06/2017,Confirmed,African swine fever,,"domestic, swine",45,6,6,39,0,,,,
228449,National authorities,23.402081,45.23404,Asia,Saudi Arabia,Riyad,Riyad,Centroid Admin1,11/06/2017,14/06/2017,Confirmed,MERS-CoV ,,,,,,,,Female,70,1,
228408,National authorities,23.402081,45.23404,Asia,Saudi Arabia,Riyad,Riyad,Centroid Admin1,11/06/2017,13/06/2017,Confirmed,MERS-CoV ,,,,,,,,Female,53,1,
228365,National authorities,23.402081,45.23404,Asia,Saudi Arabia,Riyad,Riyad,Centroid Admin1,,11/06/2017,Confirmed,MERS-CoV ,,,,,,,,Female,54,1,
228363,National authorities,23.402081,45.23404,Asia,Saudi Arabia,Riyad,Riyad,Centroid Admin1,,11/06/2017,Confirmed,MERS-CoV ,,,,,,,,Male,39,1,
228361,National authorities,23.402081,45.23404,Asia,Saudi Arabia,Riyad,Riyad,Centroid Admin1,,11/06/2017,Confirmed,MERS-CoV ,,,,,,,,Male,35,1,
230174,National authorities,29.09197,31.07445,Africa,Egypt,Beni Suef,Bayad El Arab,Centroid Admin2,10/06/2017,11/06/2017,Confirmed,Influenza - Avian,H5N1 HPAI,"domestic, turkey",,3000,,3000,,,,,
229215,National authorities,40.02238,20.24602,Europe,Albania,Gjirokaster,Q.GJIROKASTER,Centroid Admin1,10/06/2017,15/06/2017,Confirmed,Lumpy skin disease,,"domestic, cattle",4,1,1,,,,,,
229214,National authorities,40.3604,19.92765,Europe,Albania,Tepelene,VAGALAT,Centroid Admin1,10/06/2017,14/06/2017,Confirmed,Lumpy skin disease,,"domestic, cattle",13,5,1,,,,,,
229213,National authorities,40.6863,19.96954,Europe,Albania,Berat,BERAT,Centroid Admin1,10/06/2017,20/06/2017,Confirmed,Lumpy skin disease,,"domestic, cattle",3,1,0,,,,,,
229212,National authorities,40.35514,19.62631,Europe,Albania,Vlore,SEVASTER,Centroid Admin1,10/06/2017,11/06/2017,Confirmed,Lumpy skin disease,,"domestic, cattle",45,5,2,,,,,,
229211,National authorities,40.35514,19.62631,Europe,Albania,Vlore,GJORM,Centroid Admin1,10/06/2017,14/06/2017,Confirmed,Lumpy skin disease,,"domestic, cattle",3,1,0,,,,,,
229210,National authorities,40.35514,19.62631,Europe,Albania,Vlore,BOLENE,Centroid Admin1,10/06/2017,12/06/2017,Confirmed,Lumpy skin disease,,"domestic, cattle",2,1,0,,,,,,
229209,National authorities,40.35514,19.62631,Europe,Albania,Vlore,BOLENE,Centroid Admin1,10/06/2017,12/06/2017,Confirmed,Lumpy skin disease,,"domestic, cattle",4,1,0,,,,,,
